<?xml version="1.0" encoding="UTF-8"?>
<AIRPORTS>
  <AIRPORT ID="1">
    <NAME>Goroka</NAME>
    <TOWN>Goroka</TOWN>
    <COUNTRY>Papua New Guinea</COUNTRY>
    <IATA>GKA</IATA>
    <ICAO>AYGA</ICAO>
    <LATITUDE>0.00000000</LATITUDE>
    <LONGITUDE>0.00000000</LONGITUDE>
    <ELEV>5282</ELEV>
    <UCS>10</UCS>
    <LETTER>U r</LETTER>
  </AIRPORT>
  <AIRPORT ID="2">
    <NAME>Madang</NAME>
    <TOWN>Madang</TOWN>
    <COUNTRY>Papua New Guinea</COUNTRY>
    <IATA>MAG</IATA>
    <ICAO>AYMD</ICAO>
    <LATITUDE>0.00000000</LATITUDE>
    <LONGITUDE>0.00000000</LONGITUDE>
    <ELEV>0</ELEV>
    <UCS>10</UCS>
    <LETTER>U r</LETTER>
  </AIRPORT>
  <AIRPORT ID="3">
    <NAME>Mount Hagen</NAME>
    <TOWN>Mount Hagen</TOWN>
    <COUNTRY>Papua New Guinea</COUNTRY>
    <IATA>HGU</IATA>
    <ICAO>AYMH</ICAO>
    <LATITUDE>0.00000000</LATITUDE>
    <LONGITUDE>0.00000000</LONGITUDE>
    <ELEV>5388</ELEV>
    <UCS>10</UCS>
    <LETTER>U r</LETTER>
  </AIRPORT>
  <AIRPORT ID="4">
    <NAME>Nadzab</NAME>
    <TOWN>Nadzab</TOWN>
    <COUNTRY>Papua New Guinea</COUNTRY>
    <IATA>LAE</IATA>
    <ICAO>AYNZ</ICAO>
    <LATITUDE>0.00000000</LATITUDE>
    <LONGITUDE>146.72624200</LONGITUDE>
    <ELEV>239</ELEV>
    <UCS>10</UCS>
    <LETTER>U r</LETTER>
  </AIRPORT>
  <AIRPORT ID="5">
    <NAME>Port Moresby Jacksons Intl</NAME>
    <TOWN>Port Moresby</TOWN>
    <COUNTRY>Papua New Guinea</COUNTRY>
    <IATA>POM</IATA>
    <ICAO>AYPY</ICAO>
    <LATITUDE>0.00000000</LATITUDE>
    <LONGITUDE>147.22005000</LONGITUDE>
    <ELEV>146</ELEV>
    <UCS>10</UCS>
    <LETTER>U r</LETTER>
  </AIRPORT>
  <AIRPORT ID="6">
    <NAME>Wewak Intl</NAME>
    <TOWN>Wewak</TOWN>
    <COUNTRY>Papua New Guinea</COUNTRY>
    <IATA>WWK</IATA>
    <ICAO>AYWK</ICAO>
    <LATITUDE>0.00000000</LATITUDE>
    <LONGITUDE>143.66918600</LONGITUDE>
    <ELEV>19</ELEV>
    <UCS>10</UCS>
    <LETTER>U r</LETTER>
  </AIRPORT>
  <AIRPORT ID="7">
    <NAME>Narsarsuaq</NAME>
    <TOWN>Narssarssuaq</TOWN>
    <COUNTRY>Greenland</COUNTRY>
    <IATA>UAK</IATA>
    <ICAO>BGBW</ICAO>
    <LATITUDE>0.00000000</LATITUDE>
    <LONGITUDE>-45.42597800</LONGITUDE>
    <ELEV>112</ELEV>
    <UCS>-3</UCS>
    <LETTER>E r</LETTER>
  </AIRPORT>
  <AIRPORT ID="8">
    <NAME>Nuuk</NAME>
    <TOWN>Godthaab</TOWN>
    <COUNTRY>Greenland</COUNTRY>
    <IATA>GOH</IATA>
    <ICAO>BGGH</ICAO>
    <LATITUDE>0.00000000</LATITUDE>
    <LONGITUDE>-51.67806400</LONGITUDE>
    <ELEV>283</ELEV>
    <UCS>-3</UCS>
    <LETTER>E r</LETTER>
  </AIRPORT>
  <AIRPORT ID="9">
    <NAME>Sondre Stromfjord</NAME>
    <TOWN>Sondrestrom</TOWN>
    <COUNTRY>Greenland</COUNTRY>
    <IATA>SFJ</IATA>
    <ICAO>BGSF</ICAO>
    <LATITUDE>0.00000000</LATITUDE>
    <LONGITUDE>0.00000000</LONGITUDE>
    <ELEV>165</ELEV>
    <UCS>-3</UCS>
    <LETTER>E r</LETTER>
  </AIRPORT>
  <AIRPORT ID="10">
    <NAME>Thule Air Base</NAME>
    <TOWN>Thule</TOWN>
    <COUNTRY>Greenland</COUNTRY>
    <IATA>THU</IATA>
    <ICAO>BGTL</ICAO>
    <LATITUDE>76.53120300</LATITUDE>
    <LONGITUDE>0.00000000</LONGITUDE>
    <ELEV>251</ELEV>
    <UCS>-4</UCS>
    <LETTER>E r</LETTER>
  </AIRPORT>
  <AIRPORT ID="11">
    <NAME>Akureyri</NAME>
    <TOWN>Akureyri</TOWN>
    <COUNTRY>Iceland</COUNTRY>
    <IATA>AEY</IATA>
    <ICAO>BIAR</ICAO>
    <LATITUDE>65.65999400</LATITUDE>
    <LONGITUDE>-18.07270300</LONGITUDE>
    <ELEV>6</ELEV>
    <UCS>0</UCS>
    <LETTER>N r</LETTER>
  </AIRPORT>
  <AIRPORT ID="12">
    <NAME>Egilsstadir</NAME>
    <TOWN>Egilsstadir</TOWN>
    <COUNTRY>Iceland</COUNTRY>
    <IATA>EGS</IATA>
    <ICAO>BIEG</ICAO>
    <LATITUDE>65.28333300</LATITUDE>
    <LONGITUDE>0.00000000</LONGITUDE>
    <ELEV>76</ELEV>
    <UCS>0</UCS>
    <LETTER>N r</LETTER>
  </AIRPORT>
  <AIRPORT ID="13">
    <NAME>Hornafjordur</NAME>
    <TOWN>Hofn</TOWN>
    <COUNTRY>Iceland</COUNTRY>
    <IATA>HFN</IATA>
    <ICAO>BIHN</ICAO>
    <LATITUDE>64.29555600</LATITUDE>
    <LONGITUDE>0.00000000</LONGITUDE>
    <ELEV>24</ELEV>
    <UCS>0</UCS>
    <LETTER>N r</LETTER>
  </AIRPORT>
  <AIRPORT ID="14">
    <NAME>Husavik</NAME>
    <TOWN>Husavik</TOWN>
    <COUNTRY>Iceland</COUNTRY>
    <IATA>HZK</IATA>
    <ICAO>BIHU</ICAO>
    <LATITUDE>65.95232800</LATITUDE>
    <LONGITUDE>-17.42597800</LONGITUDE>
    <ELEV>48</ELEV>
    <UCS>0</UCS>
    <LETTER>N r</LETTER>
  </AIRPORT>
  <AIRPORT ID="15">
    <NAME>Isafjordur</NAME>
    <TOWN>Isafjordur</TOWN>
    <COUNTRY>Iceland</COUNTRY>
    <IATA>IFJ</IATA>
    <ICAO>BIIS</ICAO>
    <LATITUDE>66.05805600</LATITUDE>
    <LONGITUDE>-23.13527800</LONGITUDE>
    <ELEV>8</ELEV>
    <UCS>0</UCS>
    <LETTER>N r</LETTER>
  </AIRPORT>
  <AIRPORT ID="16">
    <NAME>Keflavik International Airport</NAME>
    <TOWN>Keflavik</TOWN>
    <COUNTRY>Iceland</COUNTRY>
    <IATA>KEF</IATA>
    <ICAO>BIKF</ICAO>
    <LATITUDE>63.98500000</LATITUDE>
    <LONGITUDE>-22.60555600</LONGITUDE>
    <ELEV>171</ELEV>
    <UCS>0</UCS>
    <LETTER>N r</LETTER>
  </AIRPORT>
  <AIRPORT ID="17">
    <NAME>Patreksfjordur</NAME>
    <TOWN>Patreksfjordur</TOWN>
    <COUNTRY>Iceland</COUNTRY>
    <IATA>PFJ</IATA>
    <ICAO>BIPA</ICAO>
    <LATITUDE>65.55583300</LATITUDE>
    <LONGITUDE>-23.96500000</LONGITUDE>
    <ELEV>11</ELEV>
    <UCS>0</UCS>
    <LETTER>N r</LETTER>
  </AIRPORT>
  <AIRPORT ID="18">
    <NAME>Reykjavik</NAME>
    <TOWN>Reykjavik</TOWN>
    <COUNTRY>Iceland</COUNTRY>
    <IATA>RKV</IATA>
    <ICAO>BIRK</ICAO>
    <LATITUDE>64.13000000</LATITUDE>
    <LONGITUDE>-21.94055600</LONGITUDE>
    <ELEV>48</ELEV>
    <UCS>0</UCS>
    <LETTER>N r</LETTER>
  </AIRPORT>
  <AIRPORT ID="19">
    <NAME>Siglufjordur</NAME>
    <TOWN>Siglufjordur</TOWN>
    <COUNTRY>Iceland</COUNTRY>
    <IATA>SIJ</IATA>
    <ICAO>BISI</ICAO>
    <LATITUDE>66.13333300</LATITUDE>
    <LONGITUDE>-18.91666700</LONGITUDE>
    <ELEV>10</ELEV>
    <UCS>0</UCS>
    <LETTER>N r</LETTER>
  </AIRPORT>
  <AIRPORT ID="20">
    <NAME>Vestmannaeyjar</NAME>
    <TOWN>Vestmannaeyjar</TOWN>
    <COUNTRY>Iceland</COUNTRY>
    <IATA>VEY</IATA>
    <ICAO>BIVM</ICAO>
    <LATITUDE>63.42430300</LATITUDE>
    <LONGITUDE>-20.27887500</LONGITUDE>
    <ELEV>326</ELEV>
    <UCS>0</UCS>
    <LETTER>N r</LETTER>
  </AIRPORT>
  <AIRPORT ID="21">
    <NAME>Sault Ste Marie</NAME>
    <TOWN>Sault Sainte Marie</TOWN>
    <COUNTRY>Canada</COUNTRY>
    <IATA>YAM</IATA>
    <ICAO>CYAM</ICAO>
    <LATITUDE>46.48500100</LATITUDE>
    <LONGITUDE>-84.50944500</LONGITUDE>
    <ELEV>630</ELEV>
    <UCS>-5</UCS>
    <LETTER>A r</LETTER>
  </AIRPORT>
  <AIRPORT ID="22">
    <NAME>Winnipeg St Andrews</NAME>
    <TOWN>Winnipeg</TOWN>
    <COUNTRY>Canada</COUNTRY>
    <IATA>YAV</IATA>
    <ICAO>CYAV</ICAO>
    <LATITUDE>50.05638900</LATITUDE>
    <LONGITUDE>-97.03250000</LONGITUDE>
    <ELEV>760</ELEV>
    <UCS>-6</UCS>
    <LETTER>A r</LETTER>
  </AIRPORT>
  <AIRPORT ID="23">
    <NAME>Shearwater</NAME>
    <TOWN>Halifax</TOWN>
    <COUNTRY>Canada</COUNTRY>
    <IATA>YAW</IATA>
    <ICAO>CYAW</ICAO>
    <LATITUDE>44.63972100</LATITUDE>
    <LONGITUDE>-63.49944400</LONGITUDE>
    <ELEV>167</ELEV>
    <UCS>-4</UCS>
    <LETTER>A r</LETTER>
  </AIRPORT>
  <AIRPORT ID="24">
    <NAME>St Anthony</NAME>
    <TOWN>St. Anthony</TOWN>
    <COUNTRY>Canada</COUNTRY>
    <IATA>YAY</IATA>
    <ICAO>CYAY</ICAO>
    <LATITUDE>51.39194400</LATITUDE>
    <LONGITUDE>-56.08305600</LONGITUDE>
    <ELEV>108</ELEV>
    <UCS>-4</UCS>
    <LETTER>A r</LETTER>
  </AIRPORT>
  <AIRPORT ID="25">
    <NAME>Tofino</NAME>
    <TOWN>Tofino</TOWN>
    <COUNTRY>Canada</COUNTRY>
    <IATA>YAZ</IATA>
    <ICAO>CYAZ</ICAO>
    <LATITUDE>49.08222200</LATITUDE>
    <LONGITUDE>-125.77250000</LONGITUDE>
    <ELEV>80</ELEV>
    <UCS>-8</UCS>
    <LETTER>A r</LETTER>
  </AIRPORT>
  <AIRPORT ID="26">
    <NAME>Kugaaruk</NAME>
    <TOWN>Pelly Bay</TOWN>
    <COUNTRY>Canada</COUNTRY>
    <IATA>YBB</IATA>
    <ICAO>CYBB</ICAO>
    <LATITUDE>68.53444400</LATITUDE>
    <LONGITUDE>-89.80805600</LONGITUDE>
    <ELEV>56</ELEV>
    <UCS>-6</UCS>
    <LETTER>A r</LETTER>
  </AIRPORT>
  <AIRPORT ID="27">
    <NAME>Baie Comeau</NAME>
    <TOWN>Baie Comeau</TOWN>
    <COUNTRY>Canada</COUNTRY>
    <IATA>YBC</IATA>
    <ICAO>CYBC</ICAO>
    <LATITUDE>49.13250000</LATITUDE>
    <LONGITUDE>-68.20444400</LONGITUDE>
    <ELEV>71</ELEV>
    <UCS>-5</UCS>
    <LETTER>A r</LETTER>
  </AIRPORT>
  <AIRPORT ID="28">
    <NAME>Bagotville</NAME>
    <TOWN>Bagotville</TOWN>
    <COUNTRY>Canada</COUNTRY>
    <IATA>YBG</IATA>
    <ICAO>CYBG</ICAO>
    <LATITUDE>48.33055500</LATITUDE>
    <LONGITUDE>-70.99639100</LONGITUDE>
    <ELEV>522</ELEV>
    <UCS>-5</UCS>
    <LETTER>A r</LETTER>
  </AIRPORT>
  <AIRPORT ID="29">
    <NAME>Baker Lake</NAME>
    <TOWN>Baker Lake</TOWN>
    <COUNTRY>Canada</COUNTRY>
    <IATA>YBK</IATA>
    <ICAO>CYBK</ICAO>
    <LATITUDE>64.29888900</LATITUDE>
    <LONGITUDE>-96.07777800</LONGITUDE>
    <ELEV>59</ELEV>
    <UCS>-6</UCS>
    <LETTER>A r</LETTER>
  </AIRPORT>
  <AIRPORT ID="30">
    <NAME>Campbell River</NAME>
    <TOWN>Campbell River</TOWN>
    <COUNTRY>Canada</COUNTRY>
    <IATA>YBL</IATA>
    <ICAO>CYBL</ICAO>
    <LATITUDE>49.95083200</LATITUDE>
    <LONGITUDE>-125.27083300</LONGITUDE>
    <ELEV>346</ELEV>
    <UCS>-8</UCS>
    <LETTER>A r</LETTER>
  </AIRPORT>
  <AIRPORT ID="31">
    <NAME>Brandon Muni</NAME>
    <TOWN>Brandon</TOWN>
    <COUNTRY>Canada</COUNTRY>
    <IATA>YBR</IATA>
    <ICAO>CYBR</ICAO>
    <LATITUDE>49.91000000</LATITUDE>
    <LONGITUDE>-99.95194400</LONGITUDE>
    <ELEV>1343</ELEV>
    <UCS>-6</UCS>
    <LETTER>A r</LETTER>
  </AIRPORT>
  <AIRPORT ID="32">
    <NAME>Cambridge Bay</NAME>
    <TOWN>Cambridge Bay</TOWN>
    <COUNTRY>Canada</COUNTRY>
    <IATA>YCB</IATA>
    <ICAO>CYCB</ICAO>
    <LATITUDE>69.10805500</LATITUDE>
    <LONGITUDE>-105.13833300</LONGITUDE>
    <ELEV>90</ELEV>
    <UCS>-7</UCS>
    <LETTER>A r</LETTER>
  </AIRPORT>
  <AIRPORT ID="33">
    <NAME>Nanaimo</NAME>
    <TOWN>Nanaimo</TOWN>
    <COUNTRY>Canada</COUNTRY>
    <IATA>YCD</IATA>
    <ICAO>CYCD</ICAO>
    <LATITUDE>49.05233300</LATITUDE>
    <LONGITUDE>-123.87016700</LONGITUDE>
    <ELEV>93</ELEV>
    <UCS>-8</UCS>
    <LETTER>A r</LETTER>
  </AIRPORT>
  <AIRPORT ID="34">
    <NAME>Castlegar</NAME>
    <TOWN>Castlegar</TOWN>
    <COUNTRY>Canada</COUNTRY>
    <IATA>YCG</IATA>
    <ICAO>CYCG</ICAO>
    <LATITUDE>49.29638900</LATITUDE>
    <LONGITUDE>-117.63250000</LONGITUDE>
    <ELEV>1624</ELEV>
    <UCS>-8</UCS>
    <LETTER>A r</LETTER>
  </AIRPORT>
  <AIRPORT ID="35">
    <NAME>Miramichi</NAME>
    <TOWN>Chatham</TOWN>
    <COUNTRY>Canada</COUNTRY>
    <IATA>YCH</IATA>
    <ICAO>CYCH</ICAO>
    <LATITUDE>47.00777800</LATITUDE>
    <LONGITUDE>-65.44916700</LONGITUDE>
    <ELEV>108</ELEV>
    <UCS>-4</UCS>
    <LETTER>A r</LETTER>
  </AIRPORT>
  <AIRPORT ID="36">
    <NAME>Charlo</NAME>
    <TOWN>Charlo</TOWN>
    <COUNTRY>Canada</COUNTRY>
    <IATA>YCL</IATA>
    <ICAO>CYCL</ICAO>
    <LATITUDE>47.99083300</LATITUDE>
    <LONGITUDE>-66.33027800</LONGITUDE>
    <ELEV>132</ELEV>
    <UCS>-4</UCS>
    <LETTER>A r</LETTER>
  </AIRPORT>
  <AIRPORT ID="37">
    <NAME>Kugluktuk</NAME>
    <TOWN>Coppermine</TOWN>
    <COUNTRY>Canada</COUNTRY>
    <IATA>YCO</IATA>
    <ICAO>CYCO</ICAO>
    <LATITUDE>67.81666700</LATITUDE>
    <LONGITUDE>-115.14388900</LONGITUDE>
    <ELEV>74</ELEV>
    <UCS>-7</UCS>
    <LETTER>A r</LETTER>
  </AIRPORT>
  <AIRPORT ID="38">
    <NAME>Coronation</NAME>
    <TOWN>Coronation</TOWN>
    <COUNTRY>Canada</COUNTRY>
    <IATA>YCT</IATA>
    <ICAO>CYCT</ICAO>
    <LATITUDE>52.07500100</LATITUDE>
    <LONGITUDE>-111.44527800</LONGITUDE>
    <ELEV>2595</ELEV>
    <UCS>-7</UCS>
    <LETTER>A r</LETTER>
  </AIRPORT>
  <AIRPORT ID="39">
    <NAME>Chilliwack</NAME>
    <TOWN>Chilliwack</TOWN>
    <COUNTRY>Canada</COUNTRY>
    <IATA>YCW</IATA>
    <ICAO>CYCW</ICAO>
    <LATITUDE>49.15277900</LATITUDE>
    <LONGITUDE>-121.93889000</LONGITUDE>
    <ELEV>32</ELEV>
    <UCS>-8</UCS>
    <LETTER>A r</LETTER>
  </AIRPORT>
  <AIRPORT ID="40">
    <NAME>Clyde River</NAME>
    <TOWN>Clyde River</TOWN>
    <COUNTRY>Canada</COUNTRY>
    <IATA>YCY</IATA>
    <ICAO>CYCY</ICAO>
    <LATITUDE>70.48611100</LATITUDE>
    <LONGITUDE>-68.51666700</LONGITUDE>
    <ELEV>87</ELEV>
    <UCS>-5</UCS>
    <LETTER>A r</LETTER>
  </AIRPORT>
  <AIRPORT ID="41">
    <NAME>Fairmont Hot Springs</NAME>
    <TOWN>Coral Harbour</TOWN>
    <COUNTRY>Canada</COUNTRY>
    <IATA>YZS</IATA>
    <ICAO>CYCZ</ICAO>
    <LATITUDE>64.19333300</LATITUDE>
    <LONGITUDE>-83.35944400</LONGITUDE>
    <ELEV>2661</ELEV>
    <UCS>-7</UCS>
    <LETTER>A r</LETTER>
  </AIRPORT>
  <AIRPORT ID="42">
    <NAME>Dawson City</NAME>
    <TOWN>Dawson</TOWN>
    <COUNTRY>Canada</COUNTRY>
    <IATA>YDA</IATA>
    <ICAO>CYDA</ICAO>
    <LATITUDE>64.04305600</LATITUDE>
    <LONGITUDE>-139.12777800</LONGITUDE>
    <ELEV>1215</ELEV>
    <UCS>-8</UCS>
    <LETTER>A r</LETTER>
  </AIRPORT>
  <AIRPORT ID="43">
    <NAME>Burwash</NAME>
    <TOWN>Burwash</TOWN>
    <COUNTRY>Canada</COUNTRY>
    <IATA>YDB</IATA>
    <ICAO>CYDB</ICAO>
    <LATITUDE>61.37111100</LATITUDE>
    <LONGITUDE>-139.04055600</LONGITUDE>
    <ELEV>2647</ELEV>
    <UCS>-8</UCS>
    <LETTER>A r</LETTER>
  </AIRPORT>
  <AIRPORT ID="44">
    <NAME>Princeton</NAME>
    <TOWN>Princeton</TOWN>
    <COUNTRY>Canada</COUNTRY>
    <IATA>YDC</IATA>
    <ICAO>CYDC</ICAO>
    <LATITUDE>49.46805600</LATITUDE>
    <LONGITUDE>-120.51138900</LONGITUDE>
    <ELEV>2298</ELEV>
    <UCS>-8</UCS>
    <LETTER>A r</LETTER>
  </AIRPORT>
  <AIRPORT ID="45">
    <NAME>Deer Lake</NAME>
    <TOWN>Deer Lake</TOWN>
    <COUNTRY>Canada</COUNTRY>
    <IATA>YDF</IATA>
    <ICAO>CYDF</ICAO>
    <LATITUDE>49.21083300</LATITUDE>
    <LONGITUDE>-57.39138800</LONGITUDE>
    <ELEV>72</ELEV>
    <UCS>-4</UCS>
    <LETTER>A r</LETTER>
  </AIRPORT>
  <AIRPORT ID="46">
    <NAME>Dease Lake</NAME>
    <TOWN>Dease Lake</TOWN>
    <COUNTRY>Canada</COUNTRY>
    <IATA>YDL</IATA>
    <ICAO>CYDL</ICAO>
    <LATITUDE>58.42222200</LATITUDE>
    <LONGITUDE>-130.03222200</LONGITUDE>
    <ELEV>2600</ELEV>
    <UCS>-8</UCS>
    <LETTER>A r</LETTER>
  </AIRPORT>
  <AIRPORT ID="47">
    <NAME>Dauphin Barker</NAME>
    <TOWN>Dauphin</TOWN>
    <COUNTRY>Canada</COUNTRY>
    <IATA>YDN</IATA>
    <ICAO>CYDN</ICAO>
    <LATITUDE>51.10083400</LATITUDE>
    <LONGITUDE>-100.05250000</LONGITUDE>
    <ELEV>999</ELEV>
    <UCS>-6</UCS>
    <LETTER>A r</LETTER>
  </AIRPORT>
  <AIRPORT ID="48">
    <NAME>Dawson Creek</NAME>
    <TOWN>Dawson Creek</TOWN>
    <COUNTRY>Canada</COUNTRY>
    <IATA>YDQ</IATA>
    <ICAO>CYDQ</ICAO>
    <LATITUDE>55.74233300</LATITUDE>
    <LONGITUDE>-120.18300000</LONGITUDE>
    <ELEV>2148</ELEV>
    <UCS>-7</UCS>
    <LETTER>A r</LETTER>
  </AIRPORT>
  <AIRPORT ID="49">
    <NAME>Edmonton Intl</NAME>
    <TOWN>Edmonton</TOWN>
    <COUNTRY>Canada</COUNTRY>
    <IATA>YEG</IATA>
    <ICAO>CYEG</ICAO>
    <LATITUDE>53.30972300</LATITUDE>
    <LONGITUDE>-113.57972200</LONGITUDE>
    <ELEV>2373</ELEV>
    <UCS>-7</UCS>
    <LETTER>A r</LETTER>
  </AIRPORT>
  <AIRPORT ID="50">
    <NAME>Arviat</NAME>
    <TOWN>Eskimo Point</TOWN>
    <COUNTRY>Canada</COUNTRY>
    <IATA>YEK</IATA>
    <ICAO>CYEK</ICAO>
    <LATITUDE>61.09416600</LATITUDE>
    <LONGITUDE>-94.07083300</LONGITUDE>
    <ELEV>32</ELEV>
    <UCS>-6</UCS>
    <LETTER>A r</LETTER>
  </AIRPORT>
  <AIRPORT ID="51">
    <NAME>Estevan</NAME>
    <TOWN>Estevan</TOWN>
    <COUNTRY>Canada</COUNTRY>
    <IATA>YEN</IATA>
    <ICAO>CYEN</ICAO>
    <LATITUDE>49.21027800</LATITUDE>
    <LONGITUDE>-102.96583300</LONGITUDE>
    <ELEV>1905</ELEV>
    <UCS>-6</UCS>
    <LETTER>N r</LETTER>
  </AIRPORT>
  <AIRPORT ID="52">
    <NAME>Edson</NAME>
    <TOWN>Edson</TOWN>
    <COUNTRY>Canada</COUNTRY>
    <IATA>YET</IATA>
    <ICAO>CYET</ICAO>
    <LATITUDE>53.57888800</LATITUDE>
    <LONGITUDE>-116.46500000</LONGITUDE>
    <ELEV>3041</ELEV>
    <UCS>-7</UCS>
    <LETTER>A r</LETTER>
  </AIRPORT>
  <AIRPORT ID="53">
    <NAME>Eureka</NAME>
    <TOWN>Eureka</TOWN>
    <COUNTRY>Canada</COUNTRY>
    <IATA>YEU</IATA>
    <ICAO>CYEU</ICAO>
    <LATITUDE>79.99472200</LATITUDE>
    <LONGITUDE>-85.81416700</LONGITUDE>
    <ELEV>256</ELEV>
    <UCS>-6</UCS>
    <LETTER>A r</LETTER>
  </AIRPORT>
  <AIRPORT ID="54">
    <NAME>Inuvik Mike Zubko</NAME>
    <TOWN>Inuvik</TOWN>
    <COUNTRY>Canada</COUNTRY>
    <IATA>YEV</IATA>
    <ICAO>CYEV</ICAO>
    <LATITUDE>68.30416700</LATITUDE>
    <LONGITUDE>-133.48277800</LONGITUDE>
    <ELEV>224</ELEV>
    <UCS>-7</UCS>
    <LETTER>A r</LETTER>
  </AIRPORT>
  <AIRPORT ID="55">
    <NAME>Iqaluit</NAME>
    <TOWN>Iqaluit</TOWN>
    <COUNTRY>Canada</COUNTRY>
    <IATA>YFB</IATA>
    <ICAO>CYFB</ICAO>
    <LATITUDE>63.75639000</LATITUDE>
    <LONGITUDE>-68.55583200</LONGITUDE>
    <ELEV>110</ELEV>
    <UCS>-5</UCS>
    <LETTER>A r</LETTER>
  </AIRPORT>
  <AIRPORT ID="56">
    <NAME>Fredericton</NAME>
    <TOWN>Fredericton</TOWN>
    <COUNTRY>Canada</COUNTRY>
    <IATA>YFC</IATA>
    <ICAO>CYFC</ICAO>
    <LATITUDE>45.86888900</LATITUDE>
    <LONGITUDE>-66.53722200</LONGITUDE>
    <ELEV>68</ELEV>
    <UCS>-4</UCS>
    <LETTER>A r</LETTER>
  </AIRPORT>
  <AIRPORT ID="57">
    <NAME>Forestville</NAME>
    <TOWN>Forestville</TOWN>
    <COUNTRY>Canada</COUNTRY>
    <IATA>
    </IATA>
    <ICAO>CYFE</ICAO>
    <LATITUDE>48.74611100</LATITUDE>
    <LONGITUDE>-69.09722200</LONGITUDE>
    <ELEV>293</ELEV>
    <UCS>-5</UCS>
    <LETTER>A r</LETTER>
  </AIRPORT>
  <AIRPORT ID="58">
    <NAME>Flin Flon</NAME>
    <TOWN>Flin Flon</TOWN>
    <COUNTRY>Canada</COUNTRY>
    <IATA>YFO</IATA>
    <ICAO>CYFO</ICAO>
    <LATITUDE>54.67805500</LATITUDE>
    <LONGITUDE>-101.68166700</LONGITUDE>
    <ELEV>997</ELEV>
    <UCS>-6</UCS>
    <LETTER>A r</LETTER>
  </AIRPORT>
  <AIRPORT ID="59">
    <NAME>Fort Resolution</NAME>
    <TOWN>Fort Resolution</TOWN>
    <COUNTRY>Canada</COUNTRY>
    <IATA>YFR</IATA>
    <ICAO>CYFR</ICAO>
    <LATITUDE>61.18083200</LATITUDE>
    <LONGITUDE>-113.68972200</LONGITUDE>
    <ELEV>526</ELEV>
    <UCS>-7</UCS>
    <LETTER>A r</LETTER>
  </AIRPORT>
  <AIRPORT ID="60">
    <NAME>Fort Simpson</NAME>
    <TOWN>Fort Simpson</TOWN>
    <COUNTRY>Canada</COUNTRY>
    <IATA>YFS</IATA>
    <ICAO>CYFS</ICAO>
    <LATITUDE>61.76015300</LATITUDE>
    <LONGITUDE>-121.23652500</LONGITUDE>
    <ELEV>555</ELEV>
    <UCS>-7</UCS>
    <LETTER>A r</LETTER>
  </AIRPORT>
  <AIRPORT ID="61">
    <NAME>Kingston</NAME>
    <TOWN>Kingston</TOWN>
    <COUNTRY>Canada</COUNTRY>
    <IATA>YGK</IATA>
    <ICAO>CYGK</ICAO>
    <LATITUDE>44.22527700</LATITUDE>
    <LONGITUDE>-76.59694400</LONGITUDE>
    <ELEV>305</ELEV>
    <UCS>-5</UCS>
    <LETTER>A r</LETTER>
  </AIRPORT>
  <AIRPORT ID="62">
    <NAME>La Grande Riviere</NAME>
    <TOWN>La Grande Riviere</TOWN>
    <COUNTRY>Canada</COUNTRY>
    <IATA>YGL</IATA>
    <ICAO>CYGL</ICAO>
    <LATITUDE>53.62527800</LATITUDE>
    <LONGITUDE>-77.70416700</LONGITUDE>
    <ELEV>639</ELEV>
    <UCS>-5</UCS>
    <LETTER>A r</LETTER>
  </AIRPORT>
  <AIRPORT ID="63">
    <NAME>Gaspe</NAME>
    <TOWN>Gaspe</TOWN>
    <COUNTRY>Canada</COUNTRY>
    <IATA>YGP</IATA>
    <ICAO>CYGP</ICAO>
    <LATITUDE>48.77527800</LATITUDE>
    <LONGITUDE>-64.47861100</LONGITUDE>
    <ELEV>108</ELEV>
    <UCS>-5</UCS>
    <LETTER>A r</LETTER>
  </AIRPORT>
  <AIRPORT ID="64">
    <NAME>Geraldton Greenstone Regional</NAME>
    <TOWN>Geraldton</TOWN>
    <COUNTRY>Canada</COUNTRY>
    <IATA>YGQ</IATA>
    <ICAO>CYGQ</ICAO>
    <LATITUDE>49.77833200</LATITUDE>
    <LONGITUDE>-86.93944500</LONGITUDE>
    <ELEV>1144</ELEV>
    <UCS>-5</UCS>
    <LETTER>A r</LETTER>
  </AIRPORT>
  <AIRPORT ID="65">
    <NAME>Iles De La Madeleine</NAME>
    <TOWN>Iles De La Madeleine</TOWN>
    <COUNTRY>Canada</COUNTRY>
    <IATA>YGR</IATA>
    <ICAO>CYGR</ICAO>
    <LATITUDE>47.42472100</LATITUDE>
    <LONGITUDE>-61.77805600</LONGITUDE>
    <ELEV>35</ELEV>
    <UCS>-4</UCS>
    <LETTER>A r</LETTER>
  </AIRPORT>
  <AIRPORT ID="66">
    <NAME>Hudson Bay</NAME>
    <TOWN>Hudson Bay</TOWN>
    <COUNTRY>Canada</COUNTRY>
    <IATA>YHB</IATA>
    <ICAO>CYHB</ICAO>
    <LATITUDE>52.81666600</LATITUDE>
    <LONGITUDE>-102.31139000</LONGITUDE>
    <ELEV>1175</ELEV>
    <UCS>-6</UCS>
    <LETTER>N r</LETTER>
  </AIRPORT>
  <AIRPORT ID="67">
    <NAME>Dryden Rgnl</NAME>
    <TOWN>Dryden</TOWN>
    <COUNTRY>Canada</COUNTRY>
    <IATA>YHD</IATA>
    <ICAO>CYHD</ICAO>
    <LATITUDE>49.83166700</LATITUDE>
    <LONGITUDE>-92.74416700</LONGITUDE>
    <ELEV>1354</ELEV>
    <UCS>-6</UCS>
    <LETTER>A r</LETTER>
  </AIRPORT>
  <AIRPORT ID="68">
    <NAME>Ulukhaktok Holman</NAME>
    <TOWN>Holman Island</TOWN>
    <COUNTRY>Canada</COUNTRY>
    <IATA>YHI</IATA>
    <ICAO>CYHI</ICAO>
    <LATITUDE>70.76277800</LATITUDE>
    <LONGITUDE>-117.80611100</LONGITUDE>
    <ELEV>117</ELEV>
    <UCS>-7</UCS>
    <LETTER>A r</LETTER>
  </AIRPORT>
  <AIRPORT ID="69">
    <NAME>Gjoa Haven</NAME>
    <TOWN>Gjoa Haven</TOWN>
    <COUNTRY>Canada</COUNTRY>
    <IATA>YHK</IATA>
    <ICAO>CYHK</ICAO>
    <LATITUDE>68.63555600</LATITUDE>
    <LONGITUDE>-95.84972200</LONGITUDE>
    <ELEV>152</ELEV>
    <UCS>-6</UCS>
    <LETTER>A r</LETTER>
  </AIRPORT>
  <AIRPORT ID="70">
    <NAME>Hamilton</NAME>
    <TOWN>Hamilton</TOWN>
    <COUNTRY>Canada</COUNTRY>
    <IATA>YHM</IATA>
    <ICAO>CYHM</ICAO>
    <LATITUDE>43.17361100</LATITUDE>
    <LONGITUDE>-79.93500000</LONGITUDE>
    <ELEV>780</ELEV>
    <UCS>-5</UCS>
    <LETTER>A r</LETTER>
  </AIRPORT>
  <AIRPORT ID="71">
    <NAME>St Hubert</NAME>
    <TOWN>Montreal</TOWN>
    <COUNTRY>Canada</COUNTRY>
    <IATA>YHU</IATA>
    <ICAO>CYHU</ICAO>
    <LATITUDE>45.51750000</LATITUDE>
    <LONGITUDE>-73.41694400</LONGITUDE>
    <ELEV>90</ELEV>
    <UCS>-5</UCS>
    <LETTER>A r</LETTER>
  </AIRPORT>
  <AIRPORT ID="72">
    <NAME>Hay River</NAME>
    <TOWN>Hay River</TOWN>
    <COUNTRY>Canada</COUNTRY>
    <IATA>YHY</IATA>
    <ICAO>CYHY</ICAO>
    <LATITUDE>60.83972200</LATITUDE>
    <LONGITUDE>-115.78277800</LONGITUDE>
    <ELEV>543</ELEV>
    <UCS>-7</UCS>
    <LETTER>A r</LETTER>
  </AIRPORT>
  <AIRPORT ID="73">
    <NAME>Halifax Intl</NAME>
    <TOWN>Halifax</TOWN>
    <COUNTRY>Canada</COUNTRY>
    <IATA>YHZ</IATA>
    <ICAO>CYHZ</ICAO>
    <LATITUDE>44.88083300</LATITUDE>
    <LONGITUDE>-63.50861000</LONGITUDE>
    <ELEV>477</ELEV>
    <UCS>-4</UCS>
    <LETTER>A r</LETTER>
  </AIRPORT>
  <AIRPORT ID="74">
    <NAME>Atikokan Muni</NAME>
    <TOWN>Atikokan</TOWN>
    <COUNTRY>Canada</COUNTRY>
    <IATA>YIB</IATA>
    <ICAO>CYIB</ICAO>
    <LATITUDE>48.77388800</LATITUDE>
    <LONGITUDE>-91.63861100</LONGITUDE>
    <ELEV>1408</ELEV>
    <UCS>-6</UCS>
    <LETTER>A r</LETTER>
  </AIRPORT>
  <AIRPORT ID="75">
    <NAME>Pond Inlet</NAME>
    <TOWN>Pond Inlet</TOWN>
    <COUNTRY>Canada</COUNTRY>
    <IATA>YIO</IATA>
    <ICAO>CYIO</ICAO>
    <LATITUDE>72.68333400</LATITUDE>
    <LONGITUDE>-77.96666700</LONGITUDE>
    <ELEV>181</ELEV>
    <UCS>-5</UCS>
    <LETTER>A r</LETTER>
  </AIRPORT>
  <AIRPORT ID="76">
    <NAME>St Jean</NAME>
    <TOWN>St. Jean</TOWN>
    <COUNTRY>Canada</COUNTRY>
    <IATA>YJN</IATA>
    <ICAO>CYJN</ICAO>
    <LATITUDE>45.29444500</LATITUDE>
    <LONGITUDE>-73.28111100</LONGITUDE>
    <ELEV>136</ELEV>
    <UCS>-5</UCS>
    <LETTER>A r</LETTER>
  </AIRPORT>
  <AIRPORT ID="77">
    <NAME>Stephenville</NAME>
    <TOWN>Stephenville</TOWN>
    <COUNTRY>Canada</COUNTRY>
    <IATA>YJT</IATA>
    <ICAO>CYJT</ICAO>
    <LATITUDE>48.54416700</LATITUDE>
    <LONGITUDE>-58.54999900</LONGITUDE>
    <ELEV>80</ELEV>
    <UCS>-4</UCS>
    <LETTER>A r</LETTER>
  </AIRPORT>
  <AIRPORT ID="78">
    <NAME>Kamloops</NAME>
    <TOWN>Kamloops</TOWN>
    <COUNTRY>Canada</COUNTRY>
    <IATA>YKA</IATA>
    <ICAO>CYKA</ICAO>
    <LATITUDE>50.70222200</LATITUDE>
    <LONGITUDE>-120.44444400</LONGITUDE>
    <ELEV>1133</ELEV>
    <UCS>-8</UCS>
    <LETTER>A r</LETTER>
  </AIRPORT>
  <AIRPORT ID="79">
    <NAME>Waterloo</NAME>
    <TOWN>Waterloo</TOWN>
    <COUNTRY>Canada</COUNTRY>
    <IATA>YKF</IATA>
    <ICAO>CYKF</ICAO>
    <LATITUDE>43.46083300</LATITUDE>
    <LONGITUDE>-80.37861100</LONGITUDE>
    <ELEV>1054</ELEV>
    <UCS>-5</UCS>
    <LETTER>A r</LETTER>
  </AIRPORT>
  <AIRPORT ID="80">
    <NAME>Schefferville</NAME>
    <TOWN>Schefferville</TOWN>
    <COUNTRY>Canada</COUNTRY>
    <IATA>YKL</IATA>
    <ICAO>CYKL</ICAO>
    <LATITUDE>54.80527800</LATITUDE>
    <LONGITUDE>-66.80527800</LONGITUDE>
    <ELEV>1709</ELEV>
    <UCS>-4</UCS>
    <LETTER>A r</LETTER>
  </AIRPORT>
  <AIRPORT ID="81">
    <NAME>Kindersley</NAME>
    <TOWN>Kindersley</TOWN>
    <COUNTRY>Canada</COUNTRY>
    <IATA>YKY</IATA>
    <ICAO>CYKY</ICAO>
    <LATITUDE>51.51750000</LATITUDE>
    <LONGITUDE>-109.18083300</LONGITUDE>
    <ELEV>2277</ELEV>
    <UCS>-6</UCS>
    <LETTER>N r</LETTER>
  </AIRPORT>
  <AIRPORT ID="82">
    <NAME>Buttonville Muni</NAME>
    <TOWN>Toronto</TOWN>
    <COUNTRY>Canada</COUNTRY>
    <IATA>YKZ</IATA>
    <ICAO>CYKZ</ICAO>
    <LATITUDE>43.86222100</LATITUDE>
    <LONGITUDE>-79.37000000</LONGITUDE>
    <ELEV>650</ELEV>
    <UCS>-5</UCS>
    <LETTER>A r</LETTER>
  </AIRPORT>
  <AIRPORT ID="83">
    <NAME>Chapleau</NAME>
    <TOWN>Chapleau</TOWN>
    <COUNTRY>Canada</COUNTRY>
    <IATA>YLD</IATA>
    <ICAO>CYLD</ICAO>
    <LATITUDE>47.82000000</LATITUDE>
    <LONGITUDE>-83.34666700</LONGITUDE>
    <ELEV>1470</ELEV>
    <UCS>-5</UCS>
    <LETTER>A r</LETTER>
  </AIRPORT>
  <AIRPORT ID="84">
    <NAME>Meadow Lake</NAME>
    <TOWN>Meadow Lake</TOWN>
    <COUNTRY>Canada</COUNTRY>
    <IATA>YLJ</IATA>
    <ICAO>CYLJ</ICAO>
    <LATITUDE>54.12527800</LATITUDE>
    <LONGITUDE>-108.52277800</LONGITUDE>
    <ELEV>1576</ELEV>
    <UCS>-6</UCS>
    <LETTER>N r</LETTER>
  </AIRPORT>
  <AIRPORT ID="85">
    <NAME>Lloydminster</NAME>
    <TOWN>Lloydminster</TOWN>
    <COUNTRY>Canada</COUNTRY>
    <IATA>YLL</IATA>
    <ICAO>CYLL</ICAO>
    <LATITUDE>53.30916600</LATITUDE>
    <LONGITUDE>-110.07250000</LONGITUDE>
    <ELEV>2193</ELEV>
    <UCS>-6</UCS>
    <LETTER>A r</LETTER>
  </AIRPORT>
  <AIRPORT ID="86">
    <NAME>Alert</NAME>
    <TOWN>Alert</TOWN>
    <COUNTRY>Canada</COUNTRY>
    <IATA>YLT</IATA>
    <ICAO>CYLT</ICAO>
    <LATITUDE>82.51777800</LATITUDE>
    <LONGITUDE>-62.28055600</LONGITUDE>
    <ELEV>100</ELEV>
    <UCS>-5</UCS>
    <LETTER>A r</LETTER>
  </AIRPORT>
  <AIRPORT ID="87">
    <NAME>Kelowna</NAME>
    <TOWN>Kelowna</TOWN>
    <COUNTRY>Canada</COUNTRY>
    <IATA>YLW</IATA>
    <ICAO>CYLW</ICAO>
    <LATITUDE>49.95611200</LATITUDE>
    <LONGITUDE>-119.37777800</LONGITUDE>
    <ELEV>1409</ELEV>
    <UCS>-8</UCS>
    <LETTER>A r</LETTER>
  </AIRPORT>
  <AIRPORT ID="88">
    <NAME>Mayo</NAME>
    <TOWN>Mayo</TOWN>
    <COUNTRY>Canada</COUNTRY>
    <IATA>YMA</IATA>
    <ICAO>CYMA</ICAO>
    <LATITUDE>63.61638900</LATITUDE>
    <LONGITUDE>-135.86833300</LONGITUDE>
    <ELEV>1653</ELEV>
    <UCS>-8</UCS>
    <LETTER>A r</LETTER>
  </AIRPORT>
  <AIRPORT ID="89">
    <NAME>Moose Jaw Air Vice Marshal C M Mcewen</NAME>
    <TOWN>Moose Jaw</TOWN>
    <COUNTRY>Canada</COUNTRY>
    <IATA>YMJ</IATA>
    <ICAO>CYMJ</ICAO>
    <LATITUDE>50.33027800</LATITUDE>
    <LONGITUDE>-105.55916700</LONGITUDE>
    <ELEV>1892</ELEV>
    <UCS>-6</UCS>
    <LETTER>N r</LETTER>
  </AIRPORT>
  <AIRPORT ID="90">
    <NAME>Fort Mcmurray</NAME>
    <TOWN>Fort Mcmurray</TOWN>
    <COUNTRY>Canada</COUNTRY>
    <IATA>YMM</IATA>
    <ICAO>CYMM</ICAO>
    <LATITUDE>56.65333300</LATITUDE>
    <LONGITUDE>-111.22194400</LONGITUDE>
    <ELEV>1211</ELEV>
    <UCS>-7</UCS>
    <LETTER>A r</LETTER>
  </AIRPORT>
  <AIRPORT ID="91">
    <NAME>Moosonee</NAME>
    <TOWN>Moosonee</TOWN>
    <COUNTRY>Canada</COUNTRY>
    <IATA>YMO</IATA>
    <ICAO>CYMO</ICAO>
    <LATITUDE>51.29111100</LATITUDE>
    <LONGITUDE>-80.60777800</LONGITUDE>
    <ELEV>30</ELEV>
    <UCS>-5</UCS>
    <LETTER>A r</LETTER>
  </AIRPORT>
  <AIRPORT ID="92">
    <NAME>Maniwaki</NAME>
    <TOWN>Maniwaki</TOWN>
    <COUNTRY>Canada</COUNTRY>
    <IATA>YMW</IATA>
    <ICAO>CYMW</ICAO>
    <LATITUDE>46.27277800</LATITUDE>
    <LONGITUDE>-75.99055600</LONGITUDE>
    <ELEV>656</ELEV>
    <UCS>-5</UCS>
    <LETTER>A r</LETTER>
  </AIRPORT>
  <AIRPORT ID="93">
    <NAME>Montreal Intl Mirabel</NAME>
    <TOWN>Montreal</TOWN>
    <COUNTRY>Canada</COUNTRY>
    <IATA>YMX</IATA>
    <ICAO>CYMX</ICAO>
    <LATITUDE>45.68194400</LATITUDE>
    <LONGITUDE>-74.00527800</LONGITUDE>
    <ELEV>270</ELEV>
    <UCS>-5</UCS>
    <LETTER>A r</LETTER>
  </AIRPORT>
  <AIRPORT ID="94">
    <NAME>Natashquan</NAME>
    <TOWN>Natashquan</TOWN>
    <COUNTRY>Canada</COUNTRY>
    <IATA>YNA</IATA>
    <ICAO>CYNA</ICAO>
    <LATITUDE>50.19000000</LATITUDE>
    <LONGITUDE>-61.78916700</LONGITUDE>
    <ELEV>39</ELEV>
    <UCS>-4</UCS>
    <LETTER>A r</LETTER>
  </AIRPORT>
  <AIRPORT ID="95">
    <NAME>Gatineau</NAME>
    <TOWN>Gatineau</TOWN>
    <COUNTRY>Canada</COUNTRY>
    <IATA>YND</IATA>
    <ICAO>CYND</ICAO>
    <LATITUDE>45.52169400</LATITUDE>
    <LONGITUDE>-75.56358900</LONGITUDE>
    <ELEV>211</ELEV>
    <UCS>-5</UCS>
    <LETTER>A r</LETTER>
  </AIRPORT>
  <AIRPORT ID="96">
    <NAME>Matagami</NAME>
    <TOWN>Matagami</TOWN>
    <COUNTRY>Canada</COUNTRY>
    <IATA>YNM</IATA>
    <ICAO>CYNM</ICAO>
    <LATITUDE>49.76166700</LATITUDE>
    <LONGITUDE>-77.80277800</LONGITUDE>
    <ELEV>918</ELEV>
    <UCS>-5</UCS>
    <LETTER>A r</LETTER>
  </AIRPORT>
  <AIRPORT ID="97">
    <NAME>Old Crow</NAME>
    <TOWN>Old Crow</TOWN>
    <COUNTRY>Canada</COUNTRY>
    <IATA>YOC</IATA>
    <ICAO>CYOC</ICAO>
    <LATITUDE>67.57055600</LATITUDE>
    <LONGITUDE>-139.83916700</LONGITUDE>
    <ELEV>824</ELEV>
    <UCS>-8</UCS>
    <LETTER>A r</LETTER>
  </AIRPORT>
  <AIRPORT ID="98">
    <NAME>Cold Lake</NAME>
    <TOWN>Cold Lake</TOWN>
    <COUNTRY>Canada</COUNTRY>
    <IATA>YOD</IATA>
    <ICAO>CYOD</ICAO>
    <LATITUDE>54.40499900</LATITUDE>
    <LONGITUDE>-110.27944400</LONGITUDE>
    <ELEV>1775</ELEV>
    <UCS>-7</UCS>
    <LETTER>A r</LETTER>
  </AIRPORT>
  <AIRPORT ID="99">
    <NAME>High Level</NAME>
    <TOWN>High Level</TOWN>
    <COUNTRY>Canada</COUNTRY>
    <IATA>YOJ</IATA>
    <ICAO>CYOJ</ICAO>
    <LATITUDE>58.62138900</LATITUDE>
    <LONGITUDE>-117.16472200</LONGITUDE>
    <ELEV>1110</ELEV>
    <UCS>-7</UCS>
    <LETTER>A r</LETTER>
  </AIRPORT>
  <AIRPORT ID="100">
    <NAME>Ottawa Macdonald Cartier Intl</NAME>
    <TOWN>Ottawa</TOWN>
    <COUNTRY>Canada</COUNTRY>
    <IATA>YOW</IATA>
    <ICAO>CYOW</ICAO>
    <LATITUDE>45.32250000</LATITUDE>
    <LONGITUDE>-75.66916700</LONGITUDE>
    <ELEV>374</ELEV>
    <UCS>-5</UCS>
    <LETTER>A r</LETTER>
  </AIRPORT>
  <AIRPORT ID="101">
    <NAME>Prince Albert Glass Field</NAME>
    <TOWN>Prince Albert</TOWN>
    <COUNTRY>Canada</COUNTRY>
    <IATA>YPA</IATA>
    <ICAO>CYPA</ICAO>
    <LATITUDE>53.21416700</LATITUDE>
    <LONGITUDE>-105.67277800</LONGITUDE>
    <ELEV>1405</ELEV>
    <UCS>-6</UCS>
    <LETTER>N r</LETTER>
  </AIRPORT>
  <AIRPORT ID="102">
    <NAME>Peace River</NAME>
    <TOWN>Peace River</TOWN>
    <COUNTRY>Canada</COUNTRY>
    <IATA>YPE</IATA>
    <ICAO>CYPE</ICAO>
    <LATITUDE>56.22694400</LATITUDE>
    <LONGITUDE>-117.44722200</LONGITUDE>
    <ELEV>1873</ELEV>
    <UCS>-7</UCS>
    <LETTER>A r</LETTER>
  </AIRPORT>
  <AIRPORT ID="103">
    <NAME>Southport</NAME>
    <TOWN>Portage-la-prairie</TOWN>
    <COUNTRY>Canada</COUNTRY>
    <IATA>YPG</IATA>
    <ICAO>CYPG</ICAO>
    <LATITUDE>49.90305600</LATITUDE>
    <LONGITUDE>-98.27388900</LONGITUDE>
    <ELEV>885</ELEV>
    <UCS>-6</UCS>
    <LETTER>A r</LETTER>
  </AIRPORT>
  <AIRPORT ID="104">
    <NAME>Pitt Meadows</NAME>
    <TOWN>Pitt Meadows</TOWN>
    <COUNTRY>Canada</COUNTRY>
    <IATA>
    </IATA>
    <ICAO>CYPK</ICAO>
    <LATITUDE>49.21611000</LATITUDE>
    <LONGITUDE>-122.71000000</LONGITUDE>
    <ELEV>11</ELEV>
    <UCS>-8</UCS>
    <LETTER>A r</LETTER>
  </AIRPORT>
  <AIRPORT ID="105">
    <NAME>Pickle Lake</NAME>
    <TOWN>Pickle Lake</TOWN>
    <COUNTRY>Canada</COUNTRY>
    <IATA>YPL</IATA>
    <ICAO>CYPL</ICAO>
    <LATITUDE>51.44638800</LATITUDE>
    <LONGITUDE>-90.21416700</LONGITUDE>
    <ELEV>1267</ELEV>
    <UCS>-6</UCS>
    <LETTER>A r</LETTER>
  </AIRPORT>
  <AIRPORT ID="106">
    <NAME>Port Menier</NAME>
    <TOWN>Port Menier</TOWN>
    <COUNTRY>Canada</COUNTRY>
    <IATA>YPN</IATA>
    <ICAO>CYPN</ICAO>
    <LATITUDE>49.83638900</LATITUDE>
    <LONGITUDE>-64.28861100</LONGITUDE>
    <ELEV>167</ELEV>
    <UCS>-5</UCS>
    <LETTER>A r</LETTER>
  </AIRPORT>
  <AIRPORT ID="107">
    <NAME>Peterborough</NAME>
    <TOWN>Peterborough</TOWN>
    <COUNTRY>Canada</COUNTRY>
    <IATA>YPQ</IATA>
    <ICAO>CYPQ</ICAO>
    <LATITUDE>44.23000000</LATITUDE>
    <LONGITUDE>-78.36333300</LONGITUDE>
    <ELEV>628</ELEV>
    <UCS>-5</UCS>
    <LETTER>A r</LETTER>
  </AIRPORT>
  <AIRPORT ID="108">
    <NAME>Prince Rupert</NAME>
    <TOWN>Prince Pupert</TOWN>
    <COUNTRY>Canada</COUNTRY>
    <IATA>YPR</IATA>
    <ICAO>CYPR</ICAO>
    <LATITUDE>54.28611000</LATITUDE>
    <LONGITUDE>-130.44472200</LONGITUDE>
    <ELEV>116</ELEV>
    <UCS>-8</UCS>
    <LETTER>A r</LETTER>
  </AIRPORT>
  <AIRPORT ID="109">
    <NAME>Fort Chipewyan</NAME>
    <TOWN>Fort Chipewyan</TOWN>
    <COUNTRY>Canada</COUNTRY>
    <IATA>YPY</IATA>
    <ICAO>CYPY</ICAO>
    <LATITUDE>58.76722300</LATITUDE>
    <LONGITUDE>-111.11722200</LONGITUDE>
    <ELEV>761</ELEV>
    <UCS>-7</UCS>
    <LETTER>A r</LETTER>
  </AIRPORT>
  <AIRPORT ID="110">
    <NAME>Muskoka</NAME>
    <TOWN>Muskoka</TOWN>
    <COUNTRY>Canada</COUNTRY>
    <IATA>YQA</IATA>
    <ICAO>CYQA</ICAO>
    <LATITUDE>44.97472200</LATITUDE>
    <LONGITUDE>-79.30333300</LONGITUDE>
    <ELEV>925</ELEV>
    <UCS>-5</UCS>
    <LETTER>A r</LETTER>
  </AIRPORT>
  <AIRPORT ID="111">
    <NAME>Quebec Jean Lesage Intl</NAME>
    <TOWN>Quebec</TOWN>
    <COUNTRY>Canada</COUNTRY>
    <IATA>YQB</IATA>
    <ICAO>CYQB</ICAO>
    <LATITUDE>46.79111100</LATITUDE>
    <LONGITUDE>-71.39333300</LONGITUDE>
    <ELEV>244</ELEV>
    <UCS>-5</UCS>
    <LETTER>A r</LETTER>
  </AIRPORT>
  <AIRPORT ID="112">
    <NAME>Red Deer Regional</NAME>
    <TOWN>Red Deer Industrial</TOWN>
    <COUNTRY>Canada</COUNTRY>
    <IATA>YQF</IATA>
    <ICAO>CYQF</ICAO>
    <LATITUDE>52.18222200</LATITUDE>
    <LONGITUDE>-113.89444400</LONGITUDE>
    <ELEV>2968</ELEV>
    <UCS>-7</UCS>
    <LETTER>A r</LETTER>
  </AIRPORT>
  <AIRPORT ID="113">
    <NAME>Windsor</NAME>
    <TOWN>Windsor</TOWN>
    <COUNTRY>Canada</COUNTRY>
    <IATA>YQG</IATA>
    <ICAO>CYQG</ICAO>
    <LATITUDE>42.27555600</LATITUDE>
    <LONGITUDE>-82.95555600</LONGITUDE>
    <ELEV>622</ELEV>
    <UCS>-5</UCS>
    <LETTER>A r</LETTER>
  </AIRPORT>
  <AIRPORT ID="114">
    <NAME>Watson Lake</NAME>
    <TOWN>Watson Lake</TOWN>
    <COUNTRY>Canada</COUNTRY>
    <IATA>YQH</IATA>
    <ICAO>CYQH</ICAO>
    <LATITUDE>60.11638900</LATITUDE>
    <LONGITUDE>-128.82250000</LONGITUDE>
    <ELEV>2255</ELEV>
    <UCS>-8</UCS>
    <LETTER>A r</LETTER>
  </AIRPORT>
  <AIRPORT ID="115">
    <NAME>Kenora</NAME>
    <TOWN>Kenora</TOWN>
    <COUNTRY>Canada</COUNTRY>
    <IATA>YQK</IATA>
    <ICAO>CYQK</ICAO>
    <LATITUDE>49.78833400</LATITUDE>
    <LONGITUDE>-94.36305600</LONGITUDE>
    <ELEV>1332</ELEV>
    <UCS>-6</UCS>
    <LETTER>A r</LETTER>
  </AIRPORT>
  <AIRPORT ID="116">
    <NAME>Lethbridge</NAME>
    <TOWN>Lethbridge</TOWN>
    <COUNTRY>Canada</COUNTRY>
    <IATA>YQL</IATA>
    <ICAO>CYQL</ICAO>
    <LATITUDE>49.63027800</LATITUDE>
    <LONGITUDE>-112.79972200</LONGITUDE>
    <ELEV>3047</ELEV>
    <UCS>-7</UCS>
    <LETTER>A r</LETTER>
  </AIRPORT>
  <AIRPORT ID="117">
    <NAME>Greater Moncton Intl</NAME>
    <TOWN>Moncton</TOWN>
    <COUNTRY>Canada</COUNTRY>
    <IATA>YQM</IATA>
    <ICAO>CYQM</ICAO>
    <LATITUDE>46.11222100</LATITUDE>
    <LONGITUDE>-64.67861100</LONGITUDE>
    <ELEV>232</ELEV>
    <UCS>-4</UCS>
    <LETTER>A r</LETTER>
  </AIRPORT>
  <AIRPORT ID="118">
    <NAME>Comox</NAME>
    <TOWN>Comox</TOWN>
    <COUNTRY>Canada</COUNTRY>
    <IATA>YQQ</IATA>
    <ICAO>CYQQ</ICAO>
    <LATITUDE>49.71083300</LATITUDE>
    <LONGITUDE>-124.88666700</LONGITUDE>
    <ELEV>84</ELEV>
    <UCS>-8</UCS>
    <LETTER>A r</LETTER>
  </AIRPORT>
  <AIRPORT ID="119">
    <NAME>Regina Intl</NAME>
    <TOWN>Regina</TOWN>
    <COUNTRY>Canada</COUNTRY>
    <IATA>YQR</IATA>
    <ICAO>CYQR</ICAO>
    <LATITUDE>50.43194400</LATITUDE>
    <LONGITUDE>-104.66583300</LONGITUDE>
    <ELEV>1894</ELEV>
    <UCS>-6</UCS>
    <LETTER>N r</LETTER>
  </AIRPORT>
  <AIRPORT ID="120">
    <NAME>Thunder Bay</NAME>
    <TOWN>Thunder Bay</TOWN>
    <COUNTRY>Canada</COUNTRY>
    <IATA>YQT</IATA>
    <ICAO>CYQT</ICAO>
    <LATITUDE>48.37194400</LATITUDE>
    <LONGITUDE>-89.32388900</LONGITUDE>
    <ELEV>653</ELEV>
    <UCS>-5</UCS>
    <LETTER>A r</LETTER>
  </AIRPORT>
  <AIRPORT ID="121">
    <NAME>Grande Prairie</NAME>
    <TOWN>Grande Prairie</TOWN>
    <COUNTRY>Canada</COUNTRY>
    <IATA>YQU</IATA>
    <ICAO>CYQU</ICAO>
    <LATITUDE>55.17972200</LATITUDE>
    <LONGITUDE>-118.88500000</LONGITUDE>
    <ELEV>2195</ELEV>
    <UCS>-7</UCS>
    <LETTER>A r</LETTER>
  </AIRPORT>
  <AIRPORT ID="122">
    <NAME>Yorkton Muni</NAME>
    <TOWN>Yorkton</TOWN>
    <COUNTRY>Canada</COUNTRY>
    <IATA>YQV</IATA>
    <ICAO>CYQV</ICAO>
    <LATITUDE>51.26472100</LATITUDE>
    <LONGITUDE>-102.46166700</LONGITUDE>
    <ELEV>1635</ELEV>
    <UCS>-6</UCS>
    <LETTER>N r</LETTER>
  </AIRPORT>
  <AIRPORT ID="123">
    <NAME>North Battleford</NAME>
    <TOWN>North Battleford</TOWN>
    <COUNTRY>Canada</COUNTRY>
    <IATA>YQW</IATA>
    <ICAO>CYQW</ICAO>
    <LATITUDE>52.76916700</LATITUDE>
    <LONGITUDE>-108.24361000</LONGITUDE>
    <ELEV>1799</ELEV>
    <UCS>-6</UCS>
    <LETTER>N r</LETTER>
  </AIRPORT>
  <AIRPORT ID="124">
    <NAME>Gander Intl</NAME>
    <TOWN>Gander</TOWN>
    <COUNTRY>Canada</COUNTRY>
    <IATA>YQX</IATA>
    <ICAO>CYQX</ICAO>
    <LATITUDE>48.93694400</LATITUDE>
    <LONGITUDE>-54.56805600</LONGITUDE>
    <ELEV>496</ELEV>
    <UCS>-4</UCS>
    <LETTER>A r</LETTER>
  </AIRPORT>
  <AIRPORT ID="125">
    <NAME>Sydney</NAME>
    <TOWN>Sydney</TOWN>
    <COUNTRY>Canada</COUNTRY>
    <IATA>YQY</IATA>
    <ICAO>CYQY</ICAO>
    <LATITUDE>46.16138800</LATITUDE>
    <LONGITUDE>-60.04777900</LONGITUDE>
    <ELEV>203</ELEV>
    <UCS>-4</UCS>
    <LETTER>A r</LETTER>
  </AIRPORT>
  <AIRPORT ID="126">
    <NAME>Quesnel</NAME>
    <TOWN>Quesnel</TOWN>
    <COUNTRY>Canada</COUNTRY>
    <IATA>YQZ</IATA>
    <ICAO>CYQZ</ICAO>
    <LATITUDE>53.02611200</LATITUDE>
    <LONGITUDE>-122.51027800</LONGITUDE>
    <ELEV>1789</ELEV>
    <UCS>-8</UCS>
    <LETTER>A r</LETTER>
  </AIRPORT>
  <AIRPORT ID="127">
    <NAME>Resolute Bay</NAME>
    <TOWN>Resolute</TOWN>
    <COUNTRY>Canada</COUNTRY>
    <IATA>YRB</IATA>
    <ICAO>CYRB</ICAO>
    <LATITUDE>74.71694400</LATITUDE>
    <LONGITUDE>-94.96944400</LONGITUDE>
    <ELEV>215</ELEV>
    <UCS>-6</UCS>
    <LETTER>A r</LETTER>
  </AIRPORT>
  <AIRPORT ID="128">
    <NAME>Riviere Du Loup</NAME>
    <TOWN>Riviere Du Loup</TOWN>
    <COUNTRY>Canada</COUNTRY>
    <IATA>YRI</IATA>
    <ICAO>CYRI</ICAO>
    <LATITUDE>47.76444400</LATITUDE>
    <LONGITUDE>-69.58472200</LONGITUDE>
    <ELEV>427</ELEV>
    <UCS>-5</UCS>
    <LETTER>A r</LETTER>
  </AIRPORT>
  <AIRPORT ID="129">
    <NAME>Roberval</NAME>
    <TOWN>Roberval</TOWN>
    <COUNTRY>Canada</COUNTRY>
    <IATA>YRJ</IATA>
    <ICAO>CYRJ</ICAO>
    <LATITUDE>48.52000000</LATITUDE>
    <LONGITUDE>-72.26555600</LONGITUDE>
    <ELEV>586</ELEV>
    <UCS>-5</UCS>
    <LETTER>A r</LETTER>
  </AIRPORT>
  <AIRPORT ID="130">
    <NAME>Rocky Mountain House</NAME>
    <TOWN>Rocky Mountain House</TOWN>
    <COUNTRY>Canada</COUNTRY>
    <IATA>YRM</IATA>
    <ICAO>CYRM</ICAO>
    <LATITUDE>52.42972200</LATITUDE>
    <LONGITUDE>-114.90416700</LONGITUDE>
    <ELEV>3244</ELEV>
    <UCS>-7</UCS>
    <LETTER>A r</LETTER>
  </AIRPORT>
  <AIRPORT ID="131">
    <NAME>Rankin Inlet</NAME>
    <TOWN>Rankin Inlet</TOWN>
    <COUNTRY>Canada</COUNTRY>
    <IATA>YRT</IATA>
    <ICAO>CYRT</ICAO>
    <LATITUDE>62.81139000</LATITUDE>
    <LONGITUDE>-92.11583300</LONGITUDE>
    <ELEV>94</ELEV>
    <UCS>-6</UCS>
    <LETTER>A r</LETTER>
  </AIRPORT>
  <AIRPORT ID="132">
    <NAME>Sudbury</NAME>
    <TOWN>Sudbury</TOWN>
    <COUNTRY>Canada</COUNTRY>
    <IATA>YSB</IATA>
    <ICAO>CYSB</ICAO>
    <LATITUDE>46.62500000</LATITUDE>
    <LONGITUDE>-80.79888900</LONGITUDE>
    <ELEV>1141</ELEV>
    <UCS>-5</UCS>
    <LETTER>A r</LETTER>
  </AIRPORT>
  <AIRPORT ID="133">
    <NAME>Sherbrooke</NAME>
    <TOWN>Sherbrooke</TOWN>
    <COUNTRY>Canada</COUNTRY>
    <IATA>YSC</IATA>
    <ICAO>CYSC</ICAO>
    <LATITUDE>45.43861100</LATITUDE>
    <LONGITUDE>-71.69138900</LONGITUDE>
    <ELEV>792</ELEV>
    <UCS>-5</UCS>
    <LETTER>A r</LETTER>
  </AIRPORT>
  <AIRPORT ID="134">
    <NAME>Saint John</NAME>
    <TOWN>St. John</TOWN>
    <COUNTRY>Canada</COUNTRY>
    <IATA>YSJ</IATA>
    <ICAO>CYSJ</ICAO>
    <LATITUDE>45.31611100</LATITUDE>
    <LONGITUDE>-65.89027800</LONGITUDE>
    <ELEV>357</ELEV>
    <UCS>-4</UCS>
    <LETTER>A r</LETTER>
  </AIRPORT>
  <AIRPORT ID="135">
    <NAME>Fort Smith</NAME>
    <TOWN>Fort Smith</TOWN>
    <COUNTRY>Canada</COUNTRY>
    <IATA>YSM</IATA>
    <ICAO>CYSM</ICAO>
    <LATITUDE>60.02027800</LATITUDE>
    <LONGITUDE>-111.96194400</LONGITUDE>
    <ELEV>671</ELEV>
    <UCS>-7</UCS>
    <LETTER>A r</LETTER>
  </AIRPORT>
  <AIRPORT ID="136">
    <NAME>Nanisivik</NAME>
    <TOWN>Nanisivik</TOWN>
    <COUNTRY>Canada</COUNTRY>
    <IATA>YSR</IATA>
    <ICAO>CYSR</ICAO>
    <LATITUDE>72.98222200</LATITUDE>
    <LONGITUDE>-84.61361100</LONGITUDE>
    <ELEV>2106</ELEV>
    <UCS>-5</UCS>
    <LETTER>A r</LETTER>
  </AIRPORT>
  <AIRPORT ID="137">
    <NAME>Summerside</NAME>
    <TOWN>Summerside</TOWN>
    <COUNTRY>Canada</COUNTRY>
    <IATA>YSU</IATA>
    <ICAO>CYSU</ICAO>
    <LATITUDE>46.44055600</LATITUDE>
    <LONGITUDE>-63.83361100</LONGITUDE>
    <ELEV>56</ELEV>
    <UCS>-4</UCS>
    <LETTER>A r</LETTER>
  </AIRPORT>
  <AIRPORT ID="138">
    <NAME>Sachs Harbour</NAME>
    <TOWN>Sachs Harbour</TOWN>
    <COUNTRY>Canada</COUNTRY>
    <IATA>YSY</IATA>
    <ICAO>CYSY</ICAO>
    <LATITUDE>71.99388900</LATITUDE>
    <LONGITUDE>-125.24250000</LONGITUDE>
    <ELEV>282</ELEV>
    <UCS>-7</UCS>
    <LETTER>A r</LETTER>
  </AIRPORT>
  <AIRPORT ID="139">
    <NAME>Cape Dorset</NAME>
    <TOWN>Cape Dorset</TOWN>
    <COUNTRY>Canada</COUNTRY>
    <IATA>YTE</IATA>
    <ICAO>CYTE</ICAO>
    <LATITUDE>64.23000000</LATITUDE>
    <LONGITUDE>-76.52666700</LONGITUDE>
    <ELEV>164</ELEV>
    <UCS>-5</UCS>
    <LETTER>A r</LETTER>
  </AIRPORT>
  <AIRPORT ID="140">
    <NAME>Thompson</NAME>
    <TOWN>Thompson</TOWN>
    <COUNTRY>Canada</COUNTRY>
    <IATA>YTH</IATA>
    <ICAO>CYTH</ICAO>
    <LATITUDE>55.80111100</LATITUDE>
    <LONGITUDE>-97.86416600</LONGITUDE>
    <ELEV>729</ELEV>
    <UCS>-6</UCS>
    <LETTER>A r</LETTER>
  </AIRPORT>
  <AIRPORT ID="141">
    <NAME>Trenton</NAME>
    <TOWN>Trenton</TOWN>
    <COUNTRY>Canada</COUNTRY>
    <IATA>YTR</IATA>
    <ICAO>CYTR</ICAO>
    <LATITUDE>44.11888900</LATITUDE>
    <LONGITUDE>-77.52805600</LONGITUDE>
    <ELEV>283</ELEV>
    <UCS>-5</UCS>
    <LETTER>A r</LETTER>
  </AIRPORT>
  <AIRPORT ID="142">
    <NAME>Timmins</NAME>
    <TOWN>Timmins</TOWN>
    <COUNTRY>Canada</COUNTRY>
    <IATA>YTS</IATA>
    <ICAO>CYTS</ICAO>
    <LATITUDE>48.56972100</LATITUDE>
    <LONGITUDE>-81.37666700</LONGITUDE>
    <ELEV>967</ELEV>
    <UCS>-5</UCS>
    <LETTER>A r</LETTER>
  </AIRPORT>
  <AIRPORT ID="143">
    <NAME>City Centre</NAME>
    <TOWN>Toronto</TOWN>
    <COUNTRY>Canada</COUNTRY>
    <IATA>YTZ</IATA>
    <ICAO>CYTZ</ICAO>
    <LATITUDE>43.62749900</LATITUDE>
    <LONGITUDE>-79.39616700</LONGITUDE>
    <ELEV>251</ELEV>
    <UCS>-5</UCS>
    <LETTER>A r</LETTER>
  </AIRPORT>
  <AIRPORT ID="144">
    <NAME>Tuktoyaktuk</NAME>
    <TOWN>Tuktoyaktuk</TOWN>
    <COUNTRY>Canada</COUNTRY>
    <IATA>YUB</IATA>
    <ICAO>CYUB</ICAO>
    <LATITUDE>69.43333400</LATITUDE>
    <LONGITUDE>-133.02638900</LONGITUDE>
    <ELEV>15</ELEV>
    <UCS>-7</UCS>
    <LETTER>A r</LETTER>
  </AIRPORT>
  <AIRPORT ID="145">
    <NAME>Pierre Elliott Trudeau Intl</NAME>
    <TOWN>Montreal</TOWN>
    <COUNTRY>Canada</COUNTRY>
    <IATA>YUL</IATA>
    <ICAO>CYUL</ICAO>
    <LATITUDE>45.47055600</LATITUDE>
    <LONGITUDE>-73.74083300</LONGITUDE>
    <ELEV>118</ELEV>
    <UCS>-5</UCS>
    <LETTER>A r</LETTER>
  </AIRPORT>
  <AIRPORT ID="146">
    <NAME>Repulse Bay</NAME>
    <TOWN>Repulse Bay</TOWN>
    <COUNTRY>Canada</COUNTRY>
    <IATA>YUT</IATA>
    <ICAO>CYUT</ICAO>
    <LATITUDE>66.52138900</LATITUDE>
    <LONGITUDE>-86.22472200</LONGITUDE>
    <ELEV>80</ELEV>
    <UCS>-6</UCS>
    <LETTER>A r</LETTER>
  </AIRPORT>
  <AIRPORT ID="147">
    <NAME>Hall Beach</NAME>
    <TOWN>Hall Beach</TOWN>
    <COUNTRY>Canada</COUNTRY>
    <IATA>YUX</IATA>
    <ICAO>CYUX</ICAO>
    <LATITUDE>68.77611100</LATITUDE>
    <LONGITUDE>-81.24361100</LONGITUDE>
    <ELEV>27</ELEV>
    <UCS>-5</UCS>
    <LETTER>A r</LETTER>
  </AIRPORT>
  <AIRPORT ID="148">
    <NAME>Rouyn Noranda</NAME>
    <TOWN>Rouyn</TOWN>
    <COUNTRY>Canada</COUNTRY>
    <IATA>YUY</IATA>
    <ICAO>CYUY</ICAO>
    <LATITUDE>48.20611100</LATITUDE>
    <LONGITUDE>-78.83555600</LONGITUDE>
    <ELEV>988</ELEV>
    <UCS>-5</UCS>
    <LETTER>A r</LETTER>
  </AIRPORT>
  <AIRPORT ID="149">
    <NAME>La Ronge</NAME>
    <TOWN>La Ronge</TOWN>
    <COUNTRY>Canada</COUNTRY>
    <IATA>YVC</IATA>
    <ICAO>CYVC</ICAO>
    <LATITUDE>55.15139000</LATITUDE>
    <LONGITUDE>-105.26194400</LONGITUDE>
    <ELEV>1242</ELEV>
    <UCS>-6</UCS>
    <LETTER>N r</LETTER>
  </AIRPORT>
  <AIRPORT ID="150">
    <NAME>Vermilion</NAME>
    <TOWN>Vermillion</TOWN>
    <COUNTRY>Canada</COUNTRY>
    <IATA>YVG</IATA>
    <ICAO>CYVG</ICAO>
    <LATITUDE>53.35583300</LATITUDE>
    <LONGITUDE>-110.82389000</LONGITUDE>
    <ELEV>2025</ELEV>
    <UCS>-7</UCS>
    <LETTER>A r</LETTER>
  </AIRPORT>
  <AIRPORT ID="151">
    <NAME>Qikiqtarjuaq</NAME>
    <TOWN>Broughton Island</TOWN>
    <COUNTRY>Canada</COUNTRY>
    <IATA>YVM</IATA>
    <ICAO>CYVM</ICAO>
    <LATITUDE>67.54583300</LATITUDE>
    <LONGITUDE>-64.03138900</LONGITUDE>
    <ELEV>21</ELEV>
    <UCS>-5</UCS>
    <LETTER>A r</LETTER>
  </AIRPORT>
  <AIRPORT ID="152">
    <NAME>Val D Or</NAME>
    <TOWN>Val D  or</TOWN>
    <COUNTRY>Canada</COUNTRY>
    <IATA>YVO</IATA>
    <ICAO>CYVO</ICAO>
    <LATITUDE>48.05333300</LATITUDE>
    <LONGITUDE>-77.78277800</LONGITUDE>
    <ELEV>1107</ELEV>
    <UCS>-5</UCS>
    <LETTER>A r</LETTER>
  </AIRPORT>
  <AIRPORT ID="153">
    <NAME>Kuujjuaq</NAME>
    <TOWN>Quujjuaq</TOWN>
    <COUNTRY>Canada</COUNTRY>
    <IATA>YVP</IATA>
    <ICAO>CYVP</ICAO>
    <LATITUDE>58.09611100</LATITUDE>
    <LONGITUDE>-68.42694400</LONGITUDE>
    <ELEV>129</ELEV>
    <UCS>-5</UCS>
    <LETTER>A r</LETTER>
  </AIRPORT>
  <AIRPORT ID="154">
    <NAME>Norman Wells</NAME>
    <TOWN>Norman Wells</TOWN>
    <COUNTRY>Canada</COUNTRY>
    <IATA>YVQ</IATA>
    <ICAO>CYVQ</ICAO>
    <LATITUDE>65.28161700</LATITUDE>
    <LONGITUDE>-126.79821900</LONGITUDE>
    <ELEV>238</ELEV>
    <UCS>-7</UCS>
    <LETTER>A r</LETTER>
  </AIRPORT>
  <AIRPORT ID="155">
    <NAME>Vancouver Intl</NAME>
    <TOWN>Vancouver</TOWN>
    <COUNTRY>Canada</COUNTRY>
    <IATA>YVR</IATA>
    <ICAO>CYVR</ICAO>
    <LATITUDE>49.19388900</LATITUDE>
    <LONGITUDE>-123.18444400</LONGITUDE>
    <ELEV>14</ELEV>
    <UCS>-8</UCS>
    <LETTER>A r</LETTER>
  </AIRPORT>
  <AIRPORT ID="156">
    <NAME>Buffalo Narrows</NAME>
    <TOWN>Buffalo Narrows</TOWN>
    <COUNTRY>Canada</COUNTRY>
    <IATA>YVT</IATA>
    <ICAO>CYVT</ICAO>
    <LATITUDE>55.84194400</LATITUDE>
    <LONGITUDE>-108.41750000</LONGITUDE>
    <ELEV>1444</ELEV>
    <UCS>-6</UCS>
    <LETTER>N r</LETTER>
  </AIRPORT>
  <AIRPORT ID="157">
    <NAME>Wiarton</NAME>
    <TOWN>Wiarton</TOWN>
    <COUNTRY>Canada</COUNTRY>
    <IATA>YVV</IATA>
    <ICAO>CYVV</ICAO>
    <LATITUDE>44.74583400</LATITUDE>
    <LONGITUDE>-81.10722200</LONGITUDE>
    <ELEV>729</ELEV>
    <UCS>-5</UCS>
    <LETTER>A r</LETTER>
  </AIRPORT>
  <AIRPORT ID="158">
    <NAME>Petawawa</NAME>
    <TOWN>Petawawa</TOWN>
    <COUNTRY>Canada</COUNTRY>
    <IATA>YWA</IATA>
    <ICAO>CYWA</ICAO>
    <LATITUDE>45.95222100</LATITUDE>
    <LONGITUDE>-77.31916800</LONGITUDE>
    <ELEV>427</ELEV>
    <UCS>-5</UCS>
    <LETTER>A r</LETTER>
  </AIRPORT>
  <AIRPORT ID="159">
    <NAME>Winnipeg Intl</NAME>
    <TOWN>Winnipeg</TOWN>
    <COUNTRY>Canada</COUNTRY>
    <IATA>YWG</IATA>
    <ICAO>CYWG</ICAO>
    <LATITUDE>49.91003600</LATITUDE>
    <LONGITUDE>-97.23988600</LONGITUDE>
    <ELEV>783</ELEV>
    <UCS>-6</UCS>
    <LETTER>A r</LETTER>
  </AIRPORT>
  <AIRPORT ID="160">
    <NAME>Wabush</NAME>
    <TOWN>Wabush</TOWN>
    <COUNTRY>Canada</COUNTRY>
    <IATA>YWK</IATA>
    <ICAO>CYWK</ICAO>
    <LATITUDE>52.92194400</LATITUDE>
    <LONGITUDE>-66.86444400</LONGITUDE>
    <ELEV>1808</ELEV>
    <UCS>-4</UCS>
    <LETTER>A r</LETTER>
  </AIRPORT>
  <AIRPORT ID="161">
    <NAME>Williams Lake</NAME>
    <TOWN>Williams Lake</TOWN>
    <COUNTRY>Canada</COUNTRY>
    <IATA>YWL</IATA>
    <ICAO>CYWL</ICAO>
    <LATITUDE>52.18305600</LATITUDE>
    <LONGITUDE>-122.05416700</LONGITUDE>
    <ELEV>3085</ELEV>
    <UCS>-8</UCS>
    <LETTER>A r</LETTER>
  </AIRPORT>
  <AIRPORT ID="162">
    <NAME>Wrigley</NAME>
    <TOWN>Wrigley</TOWN>
    <COUNTRY>Canada</COUNTRY>
    <IATA>YWY</IATA>
    <ICAO>CYWY</ICAO>
    <LATITUDE>63.20944400</LATITUDE>
    <LONGITUDE>-123.43666700</LONGITUDE>
    <ELEV>489</ELEV>
    <UCS>-7</UCS>
    <LETTER>A r</LETTER>
  </AIRPORT>
  <AIRPORT ID="163">
    <NAME>Canadian Rockies Intl</NAME>
    <TOWN>Cranbrook</TOWN>
    <COUNTRY>Canada</COUNTRY>
    <IATA>YXC</IATA>
    <ICAO>CYXC</ICAO>
    <LATITUDE>49.61222200</LATITUDE>
    <LONGITUDE>-115.78194400</LONGITUDE>
    <ELEV>3084</ELEV>
    <UCS>-7</UCS>
    <LETTER>A r</LETTER>
  </AIRPORT>
  <AIRPORT ID="164">
    <NAME>Edmonton City Centre</NAME>
    <TOWN>Edmonton</TOWN>
    <COUNTRY>Canada</COUNTRY>
    <IATA>YXD</IATA>
    <ICAO>CYXD</ICAO>
    <LATITUDE>53.57250000</LATITUDE>
    <LONGITUDE>-113.52055600</LONGITUDE>
    <ELEV>2200</ELEV>
    <UCS>-7</UCS>
    <LETTER>A r</LETTER>
  </AIRPORT>
  <AIRPORT ID="165">
    <NAME>Saskatoon J G Diefenbaker Intl</NAME>
    <TOWN>Saskatoon</TOWN>
    <COUNTRY>Canada</COUNTRY>
    <IATA>YXE</IATA>
    <ICAO>CYXE</ICAO>
    <LATITUDE>52.17083400</LATITUDE>
    <LONGITUDE>-106.69972200</LONGITUDE>
    <ELEV>1653</ELEV>
    <UCS>-6</UCS>
    <LETTER>N r</LETTER>
  </AIRPORT>
  <AIRPORT ID="166">
    <NAME>Medicine Hat</NAME>
    <TOWN>Medicine Hat</TOWN>
    <COUNTRY>Canada</COUNTRY>
    <IATA>YXH</IATA>
    <ICAO>CYXH</ICAO>
    <LATITUDE>50.01889000</LATITUDE>
    <LONGITUDE>-110.72083300</LONGITUDE>
    <ELEV>2352</ELEV>
    <UCS>-7</UCS>
    <LETTER>A r</LETTER>
  </AIRPORT>
  <AIRPORT ID="167">
    <NAME>Fort St John</NAME>
    <TOWN>Fort Saint John</TOWN>
    <COUNTRY>Canada</COUNTRY>
    <IATA>YXJ</IATA>
    <ICAO>CYXJ</ICAO>
    <LATITUDE>56.23805600</LATITUDE>
    <LONGITUDE>-120.74027800</LONGITUDE>
    <ELEV>2280</ELEV>
    <UCS>-8</UCS>
    <LETTER>A r</LETTER>
  </AIRPORT>
  <AIRPORT ID="168">
    <NAME>Sioux Lookout</NAME>
    <TOWN>Sioux Lookout</TOWN>
    <COUNTRY>Canada</COUNTRY>
    <IATA>YXL</IATA>
    <ICAO>CYXL</ICAO>
    <LATITUDE>50.11388900</LATITUDE>
    <LONGITUDE>-91.90527800</LONGITUDE>
    <ELEV>1258</ELEV>
    <UCS>-6</UCS>
    <LETTER>A r</LETTER>
  </AIRPORT>
  <AIRPORT ID="169">
    <NAME>Pangnirtung</NAME>
    <TOWN>Pangnirtung</TOWN>
    <COUNTRY>Canada</COUNTRY>
    <IATA>YXP</IATA>
    <ICAO>CYXP</ICAO>
    <LATITUDE>66.14500000</LATITUDE>
    <LONGITUDE>-65.71361100</LONGITUDE>
    <ELEV>75</ELEV>
    <UCS>-5</UCS>
    <LETTER>A r</LETTER>
  </AIRPORT>
  <AIRPORT ID="170">
    <NAME>Timiskaming Rgnl</NAME>
    <TOWN>Earlton</TOWN>
    <COUNTRY>Canada</COUNTRY>
    <IATA>YXR</IATA>
    <ICAO>CYXR</ICAO>
    <LATITUDE>47.69500000</LATITUDE>
    <LONGITUDE>-79.84888900</LONGITUDE>
    <ELEV>798</ELEV>
    <UCS>-5</UCS>
    <LETTER>A r</LETTER>
  </AIRPORT>
  <AIRPORT ID="171">
    <NAME>Prince George</NAME>
    <TOWN>Prince George</TOWN>
    <COUNTRY>Canada</COUNTRY>
    <IATA>YXS</IATA>
    <ICAO>CYXS</ICAO>
    <LATITUDE>53.88944400</LATITUDE>
    <LONGITUDE>-122.67888900</LONGITUDE>
    <ELEV>2267</ELEV>
    <UCS>-8</UCS>
    <LETTER>A r</LETTER>
  </AIRPORT>
  <AIRPORT ID="172">
    <NAME>Terrace</NAME>
    <TOWN>Terrace</TOWN>
    <COUNTRY>Canada</COUNTRY>
    <IATA>YXT</IATA>
    <ICAO>CYXT</ICAO>
    <LATITUDE>54.46850800</LATITUDE>
    <LONGITUDE>-128.57621900</LONGITUDE>
    <ELEV>713</ELEV>
    <UCS>-8</UCS>
    <LETTER>A r</LETTER>
  </AIRPORT>
  <AIRPORT ID="173">
    <NAME>London</NAME>
    <TOWN>London</TOWN>
    <COUNTRY>Canada</COUNTRY>
    <IATA>YXU</IATA>
    <ICAO>CYXU</ICAO>
    <LATITUDE>43.03305600</LATITUDE>
    <LONGITUDE>-81.15111100</LONGITUDE>
    <ELEV>912</ELEV>
    <UCS>-5</UCS>
    <LETTER>A r</LETTER>
  </AIRPORT>
  <AIRPORT ID="174">
    <NAME>Abbotsford</NAME>
    <TOWN>Abbotsford</TOWN>
    <COUNTRY>Canada</COUNTRY>
    <IATA>YXX</IATA>
    <ICAO>CYXX</ICAO>
    <LATITUDE>49.02527800</LATITUDE>
    <LONGITUDE>-122.36055600</LONGITUDE>
    <ELEV>195</ELEV>
    <UCS>-8</UCS>
    <LETTER>A r</LETTER>
  </AIRPORT>
  <AIRPORT ID="175">
    <NAME>Whitehorse Intl</NAME>
    <TOWN>Whitehorse</TOWN>
    <COUNTRY>Canada</COUNTRY>
    <IATA>YXY</IATA>
    <ICAO>CYXY</ICAO>
    <LATITUDE>60.70955300</LATITUDE>
    <LONGITUDE>-135.06726900</LONGITUDE>
    <ELEV>2317</ELEV>
    <UCS>-8</UCS>
    <LETTER>A r</LETTER>
  </AIRPORT>
  <AIRPORT ID="176">
    <NAME>North Bay</NAME>
    <TOWN>North Bay</TOWN>
    <COUNTRY>Canada</COUNTRY>
    <IATA>YYB</IATA>
    <ICAO>CYYB</ICAO>
    <LATITUDE>46.36361100</LATITUDE>
    <LONGITUDE>-79.42277800</LONGITUDE>
    <ELEV>1215</ELEV>
    <UCS>-5</UCS>
    <LETTER>A r</LETTER>
  </AIRPORT>
  <AIRPORT ID="177">
    <NAME>Calgary Intl</NAME>
    <TOWN>Calgary</TOWN>
    <COUNTRY>Canada</COUNTRY>
    <IATA>YYC</IATA>
    <ICAO>CYYC</ICAO>
    <LATITUDE>51.11388800</LATITUDE>
    <LONGITUDE>-114.02027800</LONGITUDE>
    <ELEV>3557</ELEV>
    <UCS>-7</UCS>
    <LETTER>A r</LETTER>
  </AIRPORT>
  <AIRPORT ID="178">
    <NAME>Smithers</NAME>
    <TOWN>Smithers</TOWN>
    <COUNTRY>Canada</COUNTRY>
    <IATA>YYD</IATA>
    <ICAO>CYYD</ICAO>
    <LATITUDE>54.82472200</LATITUDE>
    <LONGITUDE>-127.18277800</LONGITUDE>
    <ELEV>1712</ELEV>
    <UCS>-8</UCS>
    <LETTER>A r</LETTER>
  </AIRPORT>
  <AIRPORT ID="179">
    <NAME>Fort Nelson</NAME>
    <TOWN>Fort Nelson</TOWN>
    <COUNTRY>Canada</COUNTRY>
    <IATA>YYE</IATA>
    <ICAO>CYYE</ICAO>
    <LATITUDE>58.83638900</LATITUDE>
    <LONGITUDE>-122.59694400</LONGITUDE>
    <ELEV>1253</ELEV>
    <UCS>-8</UCS>
    <LETTER>A r</LETTER>
  </AIRPORT>
  <AIRPORT ID="180">
    <NAME>Penticton</NAME>
    <TOWN>Penticton</TOWN>
    <COUNTRY>Canada</COUNTRY>
    <IATA>YYF</IATA>
    <ICAO>CYYF</ICAO>
    <LATITUDE>49.46305600</LATITUDE>
    <LONGITUDE>-119.60222200</LONGITUDE>
    <ELEV>1129</ELEV>
    <UCS>-8</UCS>
    <LETTER>A r</LETTER>
  </AIRPORT>
  <AIRPORT ID="181">
    <NAME>Charlottetown</NAME>
    <TOWN>Charlottetown</TOWN>
    <COUNTRY>Canada</COUNTRY>
    <IATA>YYG</IATA>
    <ICAO>CYYG</ICAO>
    <LATITUDE>46.29000100</LATITUDE>
    <LONGITUDE>-63.12111100</LONGITUDE>
    <ELEV>160</ELEV>
    <UCS>-4</UCS>
    <LETTER>A r</LETTER>
  </AIRPORT>
  <AIRPORT ID="182">
    <NAME>Taloyoak</NAME>
    <TOWN>Spence Bay</TOWN>
    <COUNTRY>Canada</COUNTRY>
    <IATA>YYH</IATA>
    <ICAO>CYYH</ICAO>
    <LATITUDE>69.54666700</LATITUDE>
    <LONGITUDE>-93.57666700</LONGITUDE>
    <ELEV>92</ELEV>
    <UCS>-6</UCS>
    <LETTER>A r</LETTER>
  </AIRPORT>
  <AIRPORT ID="183">
    <NAME>Victoria Intl</NAME>
    <TOWN>Victoria</TOWN>
    <COUNTRY>Canada</COUNTRY>
    <IATA>YYJ</IATA>
    <ICAO>CYYJ</ICAO>
    <LATITUDE>48.64694400</LATITUDE>
    <LONGITUDE>-123.42583300</LONGITUDE>
    <ELEV>63</ELEV>
    <UCS>-8</UCS>
    <LETTER>A r</LETTER>
  </AIRPORT>
  <AIRPORT ID="184">
    <NAME>Lynn Lake</NAME>
    <TOWN>Lynn Lake</TOWN>
    <COUNTRY>Canada</COUNTRY>
    <IATA>YYL</IATA>
    <ICAO>CYYL</ICAO>
    <LATITUDE>56.86388800</LATITUDE>
    <LONGITUDE>-101.07611000</LONGITUDE>
    <ELEV>1170</ELEV>
    <UCS>-6</UCS>
    <LETTER>A r</LETTER>
  </AIRPORT>
  <AIRPORT ID="185">
    <NAME>Swift Current</NAME>
    <TOWN>Swift Current</TOWN>
    <COUNTRY>Canada</COUNTRY>
    <IATA>YYN</IATA>
    <ICAO>CYYN</ICAO>
    <LATITUDE>50.29194400</LATITUDE>
    <LONGITUDE>-107.69055600</LONGITUDE>
    <ELEV>2680</ELEV>
    <UCS>-6</UCS>
    <LETTER>N r</LETTER>
  </AIRPORT>
  <AIRPORT ID="186">
    <NAME>Churchill</NAME>
    <TOWN>Churchill</TOWN>
    <COUNTRY>Canada</COUNTRY>
    <IATA>YYQ</IATA>
    <ICAO>CYYQ</ICAO>
    <LATITUDE>58.73916700</LATITUDE>
    <LONGITUDE>-94.06500000</LONGITUDE>
    <ELEV>94</ELEV>
    <UCS>-6</UCS>
    <LETTER>A r</LETTER>
  </AIRPORT>
  <AIRPORT ID="187">
    <NAME>Goose Bay</NAME>
    <TOWN>Goose Bay</TOWN>
    <COUNTRY>Canada</COUNTRY>
    <IATA>YYR</IATA>
    <ICAO>CYYR</ICAO>
    <LATITUDE>53.31916800</LATITUDE>
    <LONGITUDE>-60.42583300</LONGITUDE>
    <ELEV>160</ELEV>
    <UCS>-4</UCS>
    <LETTER>A r</LETTER>
  </AIRPORT>
  <AIRPORT ID="188">
    <NAME>St Johns Intl</NAME>
    <TOWN>St. John  s</TOWN>
    <COUNTRY>Canada</COUNTRY>
    <IATA>YYT</IATA>
    <ICAO>CYYT</ICAO>
    <LATITUDE>47.61861000</LATITUDE>
    <LONGITUDE>-52.75194500</LONGITUDE>
    <ELEV>461</ELEV>
    <UCS>-3.5</UCS>
    <LETTER>A r</LETTER>
  </AIRPORT>
  <AIRPORT ID="189">
    <NAME>Kapuskasing</NAME>
    <TOWN>Kapuskasing</TOWN>
    <COUNTRY>Canada</COUNTRY>
    <IATA>YYU</IATA>
    <ICAO>CYYU</ICAO>
    <LATITUDE>49.41388900</LATITUDE>
    <LONGITUDE>-82.46750000</LONGITUDE>
    <ELEV>743</ELEV>
    <UCS>-5</UCS>
    <LETTER>A r</LETTER>
  </AIRPORT>
  <AIRPORT ID="190">
    <NAME>Armstrong</NAME>
    <TOWN>Armstrong</TOWN>
    <COUNTRY>Canada</COUNTRY>
    <IATA>YYW</IATA>
    <ICAO>CYYW</ICAO>
    <LATITUDE>50.29027900</LATITUDE>
    <LONGITUDE>-88.90972100</LONGITUDE>
    <ELEV>1058</ELEV>
    <UCS>-5</UCS>
    <LETTER>A r</LETTER>
  </AIRPORT>
  <AIRPORT ID="191">
    <NAME>Mont Joli</NAME>
    <TOWN>Mont Joli</TOWN>
    <COUNTRY>Canada</COUNTRY>
    <IATA>YYY</IATA>
    <ICAO>CYYY</ICAO>
    <LATITUDE>48.60861200</LATITUDE>
    <LONGITUDE>-68.20805600</LONGITUDE>
    <ELEV>172</ELEV>
    <UCS>-5</UCS>
    <LETTER>A r</LETTER>
  </AIRPORT>
  <AIRPORT ID="192">
    <NAME>Lester B Pearson Intl</NAME>
    <TOWN>Toronto</TOWN>
    <COUNTRY>Canada</COUNTRY>
    <IATA>YYZ</IATA>
    <ICAO>CYYZ</ICAO>
    <LATITUDE>43.67722300</LATITUDE>
    <LONGITUDE>-79.63055600</LONGITUDE>
    <ELEV>569</ELEV>
    <UCS>-5</UCS>
    <LETTER>A r</LETTER>
  </AIRPORT>
  <AIRPORT ID="193">
    <NAME>Downsview</NAME>
    <TOWN>Toronto</TOWN>
    <COUNTRY>Canada</COUNTRY>
    <IATA>YZD</IATA>
    <ICAO>CYZD</ICAO>
    <LATITUDE>43.74250000</LATITUDE>
    <LONGITUDE>-79.46555600</LONGITUDE>
    <ELEV>652</ELEV>
    <UCS>-5</UCS>
    <LETTER>A r</LETTER>
  </AIRPORT>
  <AIRPORT ID="194">
    <NAME>Gore Bay Manitoulin</NAME>
    <TOWN>Gore Bay</TOWN>
    <COUNTRY>Canada</COUNTRY>
    <IATA>YZE</IATA>
    <ICAO>CYZE</ICAO>
    <LATITUDE>45.88527700</LATITUDE>
    <LONGITUDE>-82.56777800</LONGITUDE>
    <ELEV>635</ELEV>
    <UCS>-5</UCS>
    <LETTER>A r</LETTER>
  </AIRPORT>
  <AIRPORT ID="195">
    <NAME>Yellowknife</NAME>
    <TOWN>Yellowknife</TOWN>
    <COUNTRY>Canada</COUNTRY>
    <IATA>YZF</IATA>
    <ICAO>CYZF</ICAO>
    <LATITUDE>62.46277800</LATITUDE>
    <LONGITUDE>-114.44027800</LONGITUDE>
    <ELEV>675</ELEV>
    <UCS>-7</UCS>
    <LETTER>A r</LETTER>
  </AIRPORT>
  <AIRPORT ID="196">
    <NAME>Slave Lake</NAME>
    <TOWN>Slave Lake</TOWN>
    <COUNTRY>Canada</COUNTRY>
    <IATA>YZH</IATA>
    <ICAO>CYZH</ICAO>
    <LATITUDE>55.29305600</LATITUDE>
    <LONGITUDE>-114.77722200</LONGITUDE>
    <ELEV>1912</ELEV>
    <UCS>-7</UCS>
    <LETTER>A r</LETTER>
  </AIRPORT>
  <AIRPORT ID="197">
    <NAME>Sandspit</NAME>
    <TOWN>Sandspit</TOWN>
    <COUNTRY>Canada</COUNTRY>
    <IATA>YZP</IATA>
    <ICAO>CYZP</ICAO>
    <LATITUDE>53.25433300</LATITUDE>
    <LONGITUDE>-131.81383300</LONGITUDE>
    <ELEV>21</ELEV>
    <UCS>-8</UCS>
    <LETTER>A r</LETTER>
  </AIRPORT>
  <AIRPORT ID="198">
    <NAME>Chris Hadfield</NAME>
    <TOWN>Sarnia</TOWN>
    <COUNTRY>Canada</COUNTRY>
    <IATA>YZR</IATA>
    <ICAO>CYZR</ICAO>
    <LATITUDE>42.99944400</LATITUDE>
    <LONGITUDE>-82.30888900</LONGITUDE>
    <ELEV>594</ELEV>
    <UCS>-5</UCS>
    <LETTER>A r</LETTER>
  </AIRPORT>
  <AIRPORT ID="199">
    <NAME>Port Hardy</NAME>
    <TOWN>Port Hardy</TOWN>
    <COUNTRY>Canada</COUNTRY>
    <IATA>YZT</IATA>
    <ICAO>CYZT</ICAO>
    <LATITUDE>50.68055600</LATITUDE>
    <LONGITUDE>-127.36666700</LONGITUDE>
    <ELEV>71</ELEV>
    <UCS>-8</UCS>
    <LETTER>A r</LETTER>
  </AIRPORT>
  <AIRPORT ID="200">
    <NAME>Whitecourt</NAME>
    <TOWN>Whitecourt</TOWN>
    <COUNTRY>Canada</COUNTRY>
    <IATA>YZU</IATA>
    <ICAO>CYZU</ICAO>
    <LATITUDE>54.14389000</LATITUDE>
    <LONGITUDE>-115.78666700</LONGITUDE>
    <ELEV>2567</ELEV>
    <UCS>-7</UCS>
    <LETTER>A r</LETTER>
  </AIRPORT>
  <AIRPORT ID="201">
    <NAME>Sept Iles</NAME>
    <TOWN>Sept-iles</TOWN>
    <COUNTRY>Canada</COUNTRY>
    <IATA>YZV</IATA>
    <ICAO>CYZV</ICAO>
    <LATITUDE>50.22333300</LATITUDE>
    <LONGITUDE>-66.26555600</LONGITUDE>
    <ELEV>180</ELEV>
    <UCS>-5</UCS>
    <LETTER>A r</LETTER>
  </AIRPORT>
  <AIRPORT ID="202">
    <NAME>Teslin</NAME>
    <TOWN>Teslin</TOWN>
    <COUNTRY>Canada</COUNTRY>
    <IATA>YZW</IATA>
    <ICAO>CYZW</ICAO>
    <LATITUDE>60.17277900</LATITUDE>
    <LONGITUDE>-132.74277800</LONGITUDE>
    <ELEV>2313</ELEV>
    <UCS>-8</UCS>
    <LETTER>A r</LETTER>
  </AIRPORT>
  <AIRPORT ID="203">
    <NAME>Greenwood</NAME>
    <TOWN>Greenwood</TOWN>
    <COUNTRY>Canada</COUNTRY>
    <IATA>YZX</IATA>
    <ICAO>CYZX</ICAO>
    <LATITUDE>44.98444400</LATITUDE>
    <LONGITUDE>-64.91694400</LONGITUDE>
    <ELEV>92</ELEV>
    <UCS>-4</UCS>
    <LETTER>A r</LETTER>
  </AIRPORT>
  <AIRPORT ID="204">
    <NAME>Faro</NAME>
    <TOWN>Faro</TOWN>
    <COUNTRY>Canada</COUNTRY>
    <IATA>ZFA</IATA>
    <ICAO>CZFA</ICAO>
    <LATITUDE>62.20750000</LATITUDE>
    <LONGITUDE>-133.37583300</LONGITUDE>
    <ELEV>2351</ELEV>
    <UCS>-8</UCS>
    <LETTER>A r</LETTER>
  </AIRPORT>
  <AIRPORT ID="205">
    <NAME>Fort Mcpherson</NAME>
    <TOWN>Fort Mcpherson</TOWN>
    <COUNTRY>Canada</COUNTRY>
    <IATA>ZFM</IATA>
    <ICAO>CZFM</ICAO>
    <LATITUDE>67.40750000</LATITUDE>
    <LONGITUDE>-134.86055600</LONGITUDE>
    <ELEV>116</ELEV>
    <UCS>-7</UCS>
    <LETTER>A r</LETTER>
  </AIRPORT>
  <AIRPORT ID="206">
    <NAME>Blida</NAME>
    <TOWN>Blida</TOWN>
    <COUNTRY>Algeria</COUNTRY>
    <IATA>
    </IATA>
    <ICAO>DAAB</ICAO>
    <LATITUDE>36.50361300</LATITUDE>
    <LONGITUDE>2.81416700</LONGITUDE>
    <ELEV>535</ELEV>
    <UCS>1</UCS>
    <LETTER>N r</LETTER>
  </AIRPORT>
  <AIRPORT ID="207">
    <NAME>Bou Saada</NAME>
    <TOWN>Bou Saada</TOWN>
    <COUNTRY>Algeria</COUNTRY>
    <IATA>
    </IATA>
    <ICAO>DAAD</ICAO>
    <LATITUDE>35.33250000</LATITUDE>
    <LONGITUDE>4.20638900</LONGITUDE>
    <ELEV>1506</ELEV>
    <UCS>1</UCS>
    <LETTER>N r</LETTER>
  </AIRPORT>
  <AIRPORT ID="208">
    <NAME>Soummam</NAME>
    <TOWN>Bejaja</TOWN>
    <COUNTRY>Algeria</COUNTRY>
    <IATA>BJA</IATA>
    <ICAO>DAAE</ICAO>
    <LATITUDE>36.71199700</LATITUDE>
    <LONGITUDE>5.06992200</LONGITUDE>
    <ELEV>20</ELEV>
    <UCS>1</UCS>
    <LETTER>N r</LETTER>
  </AIRPORT>
  <AIRPORT ID="209">
    <NAME>Houari Boumediene</NAME>
    <TOWN>Algier</TOWN>
    <COUNTRY>Algeria</COUNTRY>
    <IATA>ALG</IATA>
    <ICAO>DAAG</ICAO>
    <LATITUDE>36.69101400</LATITUDE>
    <LONGITUDE>3.21540800</LONGITUDE>
    <ELEV>82</ELEV>
    <UCS>1</UCS>
    <LETTER>N r</LETTER>
  </AIRPORT>
  <AIRPORT ID="210">
    <NAME>Tiska</NAME>
    <TOWN>Djanet</TOWN>
    <COUNTRY>Algeria</COUNTRY>
    <IATA>DJG</IATA>
    <ICAO>DAAJ</ICAO>
    <LATITUDE>24.29276700</LATITUDE>
    <LONGITUDE>9.45244400</LONGITUDE>
    <ELEV>3176</ELEV>
    <UCS>1</UCS>
    <LETTER>N r</LETTER>
  </AIRPORT>
  <AIRPORT ID="211">
    <NAME>Boufarik</NAME>
    <TOWN>Boufarik</TOWN>
    <COUNTRY>Algeria</COUNTRY>
    <IATA>
    </IATA>
    <ICAO>DAAK</ICAO>
    <LATITUDE>36.54583400</LATITUDE>
    <LONGITUDE>2.87611100</LONGITUDE>
    <ELEV>335</ELEV>
    <UCS>1</UCS>
    <LETTER>N r</LETTER>
  </AIRPORT>
  <AIRPORT ID="212">
    <NAME>Reggane</NAME>
    <TOWN>Reggan</TOWN>
    <COUNTRY>Algeria</COUNTRY>
    <IATA>
    </IATA>
    <ICAO>DAAN</ICAO>
    <LATITUDE>26.71010300</LATITUDE>
    <LONGITUDE>0.28564700</LONGITUDE>
    <ELEV>955</ELEV>
    <UCS>1</UCS>
    <LETTER>N r</LETTER>
  </AIRPORT>
  <AIRPORT ID="213">
    <NAME>Illizi Takhamalt</NAME>
    <TOWN>Illizi</TOWN>
    <COUNTRY>Algeria</COUNTRY>
    <IATA>VVZ</IATA>
    <ICAO>DAAP</ICAO>
    <LATITUDE>26.72353600</LATITUDE>
    <LONGITUDE>8.62265300</LONGITUDE>
    <ELEV>1778</ELEV>
    <UCS>1</UCS>
    <LETTER>N r</LETTER>
  </AIRPORT>
  <AIRPORT ID="214">
    <NAME>Ain Oussera</NAME>
    <TOWN>Ain Oussera</TOWN>
    <COUNTRY>Algeria</COUNTRY>
    <IATA>
    </IATA>
    <ICAO>DAAQ</ICAO>
    <LATITUDE>35.52541400</LATITUDE>
    <LONGITUDE>2.87871400</LONGITUDE>
    <ELEV>2132</ELEV>
    <UCS>1</UCS>
    <LETTER>N r</LETTER>
  </AIRPORT>
  <AIRPORT ID="215">
    <NAME>Tamanrasset</NAME>
    <TOWN>Tamanrasset</TOWN>
    <COUNTRY>Algeria</COUNTRY>
    <IATA>TMR</IATA>
    <ICAO>DAAT</ICAO>
    <LATITUDE>22.81146100</LATITUDE>
    <LONGITUDE>5.45107500</LONGITUDE>
    <ELEV>4518</ELEV>
    <UCS>1</UCS>
    <LETTER>N r</LETTER>
  </AIRPORT>
  <AIRPORT ID="216">
    <NAME>Jijel</NAME>
    <TOWN>Jijel</TOWN>
    <COUNTRY>Algeria</COUNTRY>
    <IATA>GJL</IATA>
    <ICAO>DAAV</ICAO>
    <LATITUDE>36.79513600</LATITUDE>
    <LONGITUDE>5.87360800</LONGITUDE>
    <ELEV>36</ELEV>
    <UCS>1</UCS>
    <LETTER>N r</LETTER>
  </AIRPORT>
  <AIRPORT ID="217">
    <NAME>Mecheria</NAME>
    <TOWN>Mecheria</TOWN>
    <COUNTRY>Algeria</COUNTRY>
    <IATA>
    </IATA>
    <ICAO>DAAY</ICAO>
    <LATITUDE>33.53585300</LATITUDE>
    <LONGITUDE>-0.24235300</LONGITUDE>
    <ELEV>3855</ELEV>
    <UCS>1</UCS>
    <LETTER>N r</LETTER>
  </AIRPORT>
  <AIRPORT ID="218">
    <NAME>Relizane</NAME>
    <TOWN>Relizane</TOWN>
    <COUNTRY>Algeria</COUNTRY>
    <IATA>
    </IATA>
    <ICAO>DAAZ</ICAO>
    <LATITUDE>35.75223900</LATITUDE>
    <LONGITUDE>0.62627200</LONGITUDE>
    <ELEV>282</ELEV>
    <UCS>1</UCS>
    <LETTER>N r</LETTER>
  </AIRPORT>
  <AIRPORT ID="219">
    <NAME>Annaba</NAME>
    <TOWN>Annaba</TOWN>
    <COUNTRY>Algeria</COUNTRY>
    <IATA>AAE</IATA>
    <ICAO>DABB</ICAO>
    <LATITUDE>36.82222500</LATITUDE>
    <LONGITUDE>7.80916700</LONGITUDE>
    <ELEV>16</ELEV>
    <UCS>1</UCS>
    <LETTER>N r</LETTER>
  </AIRPORT>
  <AIRPORT ID="220">
    <NAME>Mohamed Boudiaf Intl</NAME>
    <TOWN>Constantine</TOWN>
    <COUNTRY>Algeria</COUNTRY>
    <IATA>CZL</IATA>
    <ICAO>DABC</ICAO>
    <LATITUDE>36.27602800</LATITUDE>
    <LONGITUDE>6.62038600</LONGITUDE>
    <ELEV>2265</ELEV>
    <UCS>1</UCS>
    <LETTER>N r</LETTER>
  </AIRPORT>
  <AIRPORT ID="221">
    <NAME>Cheikh Larbi Tebessi</NAME>
    <TOWN>Tebessa</TOWN>
    <COUNTRY>Algeria</COUNTRY>
    <IATA>TEE</IATA>
    <ICAO>DABS</ICAO>
    <LATITUDE>35.43161100</LATITUDE>
    <LONGITUDE>8.12071700</LONGITUDE>
    <ELEV>2661</ELEV>
    <UCS>1</UCS>
    <LETTER>N r</LETTER>
  </AIRPORT>
  <AIRPORT ID="222">
    <NAME>Hassi R Mel</NAME>
    <TOWN>Tilrempt</TOWN>
    <COUNTRY>Algeria</COUNTRY>
    <IATA>HRM</IATA>
    <ICAO>DAFH</ICAO>
    <LATITUDE>32.93043100</LATITUDE>
    <LONGITUDE>3.31154200</LONGITUDE>
    <ELEV>2540</ELEV>
    <UCS>1</UCS>
    <LETTER>N r</LETTER>
  </AIRPORT>
  <AIRPORT ID="223">
    <NAME>Bou Chekif</NAME>
    <TOWN>Tiaret</TOWN>
    <COUNTRY>Algeria</COUNTRY>
    <IATA>TID</IATA>
    <ICAO>DAOB</ICAO>
    <LATITUDE>35.34113600</LATITUDE>
    <LONGITUDE>1.46314700</LONGITUDE>
    <ELEV>3245</ELEV>
    <UCS>1</UCS>
    <LETTER>N r</LETTER>
  </AIRPORT>
  <AIRPORT ID="224">
    <NAME>Bou Sfer</NAME>
    <TOWN>Bou Sfer</TOWN>
    <COUNTRY>Algeria</COUNTRY>
    <IATA>
    </IATA>
    <ICAO>DAOE</ICAO>
    <LATITUDE>35.73538900</LATITUDE>
    <LONGITUDE>-0.80538900</LONGITUDE>
    <ELEV>187</ELEV>
    <UCS>1</UCS>
    <LETTER>N r</LETTER>
  </AIRPORT>
  <AIRPORT ID="225">
    <NAME>Tindouf</NAME>
    <TOWN>Tindouf</TOWN>
    <COUNTRY>Algeria</COUNTRY>
    <IATA>TIN</IATA>
    <ICAO>DAOF</ICAO>
    <LATITUDE>27.70037200</LATITUDE>
    <LONGITUDE>-8.16710300</LONGITUDE>
    <ELEV>1453</ELEV>
    <UCS>1</UCS>
    <LETTER>N r</LETTER>
  </AIRPORT>
  <AIRPORT ID="226">
    <NAME>Ech Cheliff</NAME>
    <TOWN>Ech-cheliff</TOWN>
    <COUNTRY>Algeria</COUNTRY>
    <IATA>QAS</IATA>
    <ICAO>DAOI</ICAO>
    <LATITUDE>36.21265800</LATITUDE>
    <LONGITUDE>1.33177500</LONGITUDE>
    <ELEV>463</ELEV>
    <UCS>1</UCS>
    <LETTER>N r</LETTER>
  </AIRPORT>
  <AIRPORT ID="227">
    <NAME>Tafaraoui</NAME>
    <TOWN>Oran</TOWN>
    <COUNTRY>Algeria</COUNTRY>
    <IATA>TAF</IATA>
    <ICAO>DAOL</ICAO>
    <LATITUDE>35.54244400</LATITUDE>
    <LONGITUDE>-0.53227800</LONGITUDE>
    <ELEV>367</ELEV>
    <UCS>1</UCS>
    <LETTER>N r</LETTER>
  </AIRPORT>
  <AIRPORT ID="228">
    <NAME>Zenata</NAME>
    <TOWN>Tlemcen</TOWN>
    <COUNTRY>Algeria</COUNTRY>
    <IATA>TLM</IATA>
    <ICAO>DAON</ICAO>
    <LATITUDE>35.01666700</LATITUDE>
    <LONGITUDE>-1.45000000</LONGITUDE>
    <ELEV>814</ELEV>
    <UCS>1</UCS>
    <LETTER>N r</LETTER>
  </AIRPORT>
  <AIRPORT ID="229">
    <NAME>Es Senia</NAME>
    <TOWN>Oran</TOWN>
    <COUNTRY>Algeria</COUNTRY>
    <IATA>ORN</IATA>
    <ICAO>DAOO</ICAO>
    <LATITUDE>35.62385800</LATITUDE>
    <LONGITUDE>-0.62118300</LONGITUDE>
    <ELEV>295</ELEV>
    <UCS>1</UCS>
    <LETTER>N r</LETTER>
  </AIRPORT>
  <AIRPORT ID="230">
    <NAME>Sidi Bel Abbes</NAME>
    <TOWN>Sidi Bel Abbes</TOWN>
    <COUNTRY>Algeria</COUNTRY>
    <IATA>
    </IATA>
    <ICAO>DAOS</ICAO>
    <LATITUDE>35.17177500</LATITUDE>
    <LONGITUDE>-0.59327500</LONGITUDE>
    <ELEV>1614</ELEV>
    <UCS>1</UCS>
    <LETTER>N r</LETTER>
  </AIRPORT>
  <AIRPORT ID="231">
    <NAME>Ghriss</NAME>
    <TOWN>Ghriss</TOWN>
    <COUNTRY>Algeria</COUNTRY>
    <IATA>MUW</IATA>
    <ICAO>DAOV</ICAO>
    <LATITUDE>35.20772500</LATITUDE>
    <LONGITUDE>0.14714200</LONGITUDE>
    <ELEV>1686</ELEV>
    <UCS>1</UCS>
    <LETTER>N r</LETTER>
  </AIRPORT>
  <AIRPORT ID="232">
    <NAME>Touat Cheikh Sidi Mohamed Belkebir</NAME>
    <TOWN>Adrar</TOWN>
    <COUNTRY>Algeria</COUNTRY>
    <IATA>AZR</IATA>
    <ICAO>DAUA</ICAO>
    <LATITUDE>27.83758900</LATITUDE>
    <LONGITUDE>-0.18641400</LONGITUDE>
    <ELEV>919</ELEV>
    <UCS>1</UCS>
    <LETTER>N r</LETTER>
  </AIRPORT>
  <AIRPORT ID="233">
    <NAME>Biskra</NAME>
    <TOWN>Biskra</TOWN>
    <COUNTRY>Algeria</COUNTRY>
    <IATA>BSK</IATA>
    <ICAO>DAUB</ICAO>
    <LATITUDE>34.79328900</LATITUDE>
    <LONGITUDE>5.73823100</LONGITUDE>
    <ELEV>289</ELEV>
    <UCS>1</UCS>
    <LETTER>N r</LETTER>
  </AIRPORT>
  <AIRPORT ID="234">
    <NAME>El Golea</NAME>
    <TOWN>El Golea</TOWN>
    <COUNTRY>Algeria</COUNTRY>
    <IATA>ELG</IATA>
    <ICAO>DAUE</ICAO>
    <LATITUDE>30.57129400</LATITUDE>
    <LONGITUDE>2.85958600</LONGITUDE>
    <ELEV>1306</ELEV>
    <UCS>1</UCS>
    <LETTER>N r</LETTER>
  </AIRPORT>
  <AIRPORT ID="235">
    <NAME>Noumerat</NAME>
    <TOWN>Ghardaia</TOWN>
    <COUNTRY>Algeria</COUNTRY>
    <IATA>GHA</IATA>
    <ICAO>DAUG</ICAO>
    <LATITUDE>32.38410600</LATITUDE>
    <LONGITUDE>3.79411400</LONGITUDE>
    <ELEV>1512</ELEV>
    <UCS>1</UCS>
    <LETTER>N r</LETTER>
  </AIRPORT>
  <AIRPORT ID="236">
    <NAME>Oued Irara</NAME>
    <TOWN>Hassi-messaoud</TOWN>
    <COUNTRY>Algeria</COUNTRY>
    <IATA>HME</IATA>
    <ICAO>DAUH</ICAO>
    <LATITUDE>31.67297200</LATITUDE>
    <LONGITUDE>6.14044400</LONGITUDE>
    <ELEV>463</ELEV>
    <UCS>1</UCS>
    <LETTER>N r</LETTER>
  </AIRPORT>
  <AIRPORT ID="237">
    <NAME>In Salah</NAME>
    <TOWN>In Salah</TOWN>
    <COUNTRY>Algeria</COUNTRY>
    <IATA>INZ</IATA>
    <ICAO>DAUI</ICAO>
    <LATITUDE>27.25102200</LATITUDE>
    <LONGITUDE>2.51201700</LONGITUDE>
    <ELEV>896</ELEV>
    <UCS>1</UCS>
    <LETTER>N r</LETTER>
  </AIRPORT>
  <AIRPORT ID="238">
    <NAME>Sidi Mahdi</NAME>
    <TOWN>Touggourt</TOWN>
    <COUNTRY>Algeria</COUNTRY>
    <IATA>TGR</IATA>
    <ICAO>DAUK</ICAO>
    <LATITUDE>33.06780300</LATITUDE>
    <LONGITUDE>6.08867200</LONGITUDE>
    <ELEV>279</ELEV>
    <UCS>1</UCS>
    <LETTER>N r</LETTER>
  </AIRPORT>
  <AIRPORT ID="239">
    <NAME>Laghouat</NAME>
    <TOWN>Laghouat</TOWN>
    <COUNTRY>Algeria</COUNTRY>
    <IATA>LOO</IATA>
    <ICAO>DAUL</ICAO>
    <LATITUDE>33.76438300</LATITUDE>
    <LONGITUDE>2.92834400</LONGITUDE>
    <ELEV>2510</ELEV>
    <UCS>1</UCS>
    <LETTER>N r</LETTER>
  </AIRPORT>
  <AIRPORT ID="240">
    <NAME>Timimoun</NAME>
    <TOWN>Timimoun</TOWN>
    <COUNTRY>Algeria</COUNTRY>
    <IATA>TMX</IATA>
    <ICAO>DAUT</ICAO>
    <LATITUDE>29.23711900</LATITUDE>
    <LONGITUDE>0.27603300</LONGITUDE>
    <ELEV>1027</ELEV>
    <UCS>1</UCS>
    <LETTER>N r</LETTER>
  </AIRPORT>
  <AIRPORT ID="241">
    <NAME>Ouargla</NAME>
    <TOWN>Ouargla</TOWN>
    <COUNTRY>Algeria</COUNTRY>
    <IATA>OGX</IATA>
    <ICAO>DAUU</ICAO>
    <LATITUDE>31.91722300</LATITUDE>
    <LONGITUDE>5.41277800</LONGITUDE>
    <ELEV>492</ELEV>
    <UCS>1</UCS>
    <LETTER>N r</LETTER>
  </AIRPORT>
  <AIRPORT ID="242">
    <NAME>In Amenas</NAME>
    <TOWN>Zarzaitine</TOWN>
    <COUNTRY>Algeria</COUNTRY>
    <IATA>IAM</IATA>
    <ICAO>DAUZ</ICAO>
    <LATITUDE>28.05155000</LATITUDE>
    <LONGITUDE>9.64291100</LONGITUDE>
    <ELEV>1847</ELEV>
    <UCS>1</UCS>
    <LETTER>N r</LETTER>
  </AIRPORT>
  <AIRPORT ID="243">
    <NAME>Cadjehoun</NAME>
    <TOWN>Cotonou</TOWN>
    <COUNTRY>Benin</COUNTRY>
    <IATA>COO</IATA>
    <ICAO>DBBB</ICAO>
    <LATITUDE>6.35722800</LATITUDE>
    <LONGITUDE>2.38435300</LONGITUDE>
    <ELEV>19</ELEV>
    <UCS>1</UCS>
    <LETTER>N r</LETTER>
  </AIRPORT>
  <AIRPORT ID="244">
    <NAME>Ouagadougou</NAME>
    <TOWN>Ouagadougou</TOWN>
    <COUNTRY>Burkina Faso</COUNTRY>
    <IATA>OUA</IATA>
    <ICAO>DFFD</ICAO>
    <LATITUDE>12.35319400</LATITUDE>
    <LONGITUDE>-1.51241700</LONGITUDE>
    <ELEV>1037</ELEV>
    <UCS>0</UCS>
    <LETTER>N r</LETTER>
  </AIRPORT>
  <AIRPORT ID="245">
    <NAME>Bobo Dioulasso</NAME>
    <TOWN>Bobo-dioulasso</TOWN>
    <COUNTRY>Burkina Faso</COUNTRY>
    <IATA>BOY</IATA>
    <ICAO>DFOO</ICAO>
    <LATITUDE>11.16005600</LATITUDE>
    <LONGITUDE>-4.33096900</LONGITUDE>
    <ELEV>1511</ELEV>
    <UCS>0</UCS>
    <LETTER>N r</LETTER>
  </AIRPORT>
  <AIRPORT ID="246">
    <NAME>Kotoka Intl</NAME>
    <TOWN>Accra</TOWN>
    <COUNTRY>Ghana</COUNTRY>
    <IATA>ACC</IATA>
    <ICAO>DGAA</ICAO>
    <LATITUDE>5.60518600</LATITUDE>
    <LONGITUDE>-0.16678600</LONGITUDE>
    <ELEV>205</ELEV>
    <UCS>0</UCS>
    <LETTER>N r</LETTER>
  </AIRPORT>
  <AIRPORT ID="247">
    <NAME>Tamale</NAME>
    <TOWN>Tamale</TOWN>
    <COUNTRY>Ghana</COUNTRY>
    <IATA>TML</IATA>
    <ICAO>DGLE</ICAO>
    <LATITUDE>9.55719200</LATITUDE>
    <LONGITUDE>-0.86321400</LONGITUDE>
    <ELEV>553</ELEV>
    <UCS>0</UCS>
    <LETTER>N r</LETTER>
  </AIRPORT>
  <AIRPORT ID="248">
    <NAME>Wa</NAME>
    <TOWN>Wa</TOWN>
    <COUNTRY>Ghana</COUNTRY>
    <IATA>
    </IATA>
    <ICAO>DGLW</ICAO>
    <LATITUDE>10.08266400</LATITUDE>
    <LONGITUDE>-2.50769400</LONGITUDE>
    <ELEV>1060</ELEV>
    <UCS>0</UCS>
    <LETTER>N r</LETTER>
  </AIRPORT>
  <AIRPORT ID="249">
    <NAME>Sunyani</NAME>
    <TOWN>Sunyani</TOWN>
    <COUNTRY>Ghana</COUNTRY>
    <IATA>NYI</IATA>
    <ICAO>DGSN</ICAO>
    <LATITUDE>7.36182800</LATITUDE>
    <LONGITUDE>-2.32875600</LONGITUDE>
    <ELEV>1014</ELEV>
    <UCS>0</UCS>
    <LETTER>N r</LETTER>
  </AIRPORT>
  <AIRPORT ID="250">
    <NAME>Takoradi</NAME>
    <TOWN>Takoradi</TOWN>
    <COUNTRY>Ghana</COUNTRY>
    <IATA>TKD</IATA>
    <ICAO>DGTK</ICAO>
    <LATITUDE>4.89605600</LATITUDE>
    <LONGITUDE>-1.77475600</LONGITUDE>
    <ELEV>21</ELEV>
    <UCS>0</UCS>
    <LETTER>N r</LETTER>
  </AIRPORT>
  <AIRPORT ID="251">
    <NAME>Abidjan Felix Houphouet Boigny Intl</NAME>
    <TOWN>Abidjan</TOWN>
    <COUNTRY>Cote d  Ivoire</COUNTRY>
    <IATA>ABJ</IATA>
    <ICAO>DIAP</ICAO>
    <LATITUDE>5.26138600</LATITUDE>
    <LONGITUDE>-3.92629400</LONGITUDE>
    <ELEV>21</ELEV>
    <UCS>0</UCS>
    <LETTER>N r</LETTER>
  </AIRPORT>
  <AIRPORT ID="252">
    <NAME>Bouake</NAME>
    <TOWN>Bouake</TOWN>
    <COUNTRY>Cote d  Ivoire</COUNTRY>
    <IATA>BYK</IATA>
    <ICAO>DIBK</ICAO>
    <LATITUDE>7.73880000</LATITUDE>
    <LONGITUDE>-5.07366700</LONGITUDE>
    <ELEV>1230</ELEV>
    <UCS>0</UCS>
    <LETTER>N r</LETTER>
  </AIRPORT>
  <AIRPORT ID="253">
    <NAME>Daloa</NAME>
    <TOWN>Daloa</TOWN>
    <COUNTRY>Cote d  Ivoire</COUNTRY>
    <IATA>DJO</IATA>
    <ICAO>DIDL</ICAO>
    <LATITUDE>6.79280800</LATITUDE>
    <LONGITUDE>-6.47318900</LONGITUDE>
    <ELEV>823</ELEV>
    <UCS>0</UCS>
    <LETTER>N r</LETTER>
  </AIRPORT>
  <AIRPORT ID="254">
    <NAME>Korhogo</NAME>
    <TOWN>Korhogo</TOWN>
    <COUNTRY>Cote d  Ivoire</COUNTRY>
    <IATA>HGO</IATA>
    <ICAO>DIKO</ICAO>
    <LATITUDE>9.38718300</LATITUDE>
    <LONGITUDE>-5.55666400</LONGITUDE>
    <ELEV>1214</ELEV>
    <UCS>0</UCS>
    <LETTER>N r</LETTER>
  </AIRPORT>
  <AIRPORT ID="255">
    <NAME>Man</NAME>
    <TOWN>Man</TOWN>
    <COUNTRY>Cote d  Ivoire</COUNTRY>
    <IATA>MJC</IATA>
    <ICAO>DIMN</ICAO>
    <LATITUDE>7.27206900</LATITUDE>
    <LONGITUDE>-7.58736400</LONGITUDE>
    <ELEV>1089</ELEV>
    <UCS>0</UCS>
    <LETTER>N r</LETTER>
  </AIRPORT>
  <AIRPORT ID="256">
    <NAME>San Pedro</NAME>
    <TOWN>San Pedro</TOWN>
    <COUNTRY>Cote d  Ivoire</COUNTRY>
    <IATA>SPY</IATA>
    <ICAO>DISP</ICAO>
    <LATITUDE>4.74671700</LATITUDE>
    <LONGITUDE>-6.66081700</LONGITUDE>
    <ELEV>26</ELEV>
    <UCS>0</UCS>
    <LETTER>N r</LETTER>
  </AIRPORT>
  <AIRPORT ID="257">
    <NAME>Yamoussoukro</NAME>
    <TOWN>Yamoussoukro</TOWN>
    <COUNTRY>Cote d  Ivoire</COUNTRY>
    <IATA>ASK</IATA>
    <ICAO>DIYO</ICAO>
    <LATITUDE>6.90316700</LATITUDE>
    <LONGITUDE>-5.36558100</LONGITUDE>
    <ELEV>699</ELEV>
    <UCS>0</UCS>
    <LETTER>N r</LETTER>
  </AIRPORT>
  <AIRPORT ID="258">
    <NAME>Nnamdi Azikiwe Intl</NAME>
    <TOWN>Abuja</TOWN>
    <COUNTRY>Nigeria</COUNTRY>
    <IATA>ABV</IATA>
    <ICAO>DNAA</ICAO>
    <LATITUDE>9.00679200</LATITUDE>
    <LONGITUDE>7.26317200</LONGITUDE>
    <ELEV>1123</ELEV>
    <UCS>1</UCS>
    <LETTER>N r</LETTER>
  </AIRPORT>
  <AIRPORT ID="259">
    <NAME>Akure</NAME>
    <TOWN>Akure</TOWN>
    <COUNTRY>Nigeria</COUNTRY>
    <IATA>AKR</IATA>
    <ICAO>DNAK</ICAO>
    <LATITUDE>7.24673900</LATITUDE>
    <LONGITUDE>5.30100800</LONGITUDE>
    <ELEV>1100</ELEV>
    <UCS>1</UCS>
    <LETTER>N r</LETTER>
  </AIRPORT>
  <AIRPORT ID="260">
    <NAME>Benin</NAME>
    <TOWN>Benin</TOWN>
    <COUNTRY>Nigeria</COUNTRY>
    <IATA>BNI</IATA>
    <ICAO>DNBE</ICAO>
    <LATITUDE>6.31698100</LATITUDE>
    <LONGITUDE>5.59950300</LONGITUDE>
    <ELEV>258</ELEV>
    <UCS>1</UCS>
    <LETTER>N r</LETTER>
  </AIRPORT>
  <AIRPORT ID="261">
    <NAME>Calabar</NAME>
    <TOWN>Calabar</TOWN>
    <COUNTRY>Nigeria</COUNTRY>
    <IATA>CBQ</IATA>
    <ICAO>DNCA</ICAO>
    <LATITUDE>4.97601900</LATITUDE>
    <LONGITUDE>8.34719700</LONGITUDE>
    <ELEV>210</ELEV>
    <UCS>1</UCS>
    <LETTER>N r</LETTER>
  </AIRPORT>
  <AIRPORT ID="262">
    <NAME>Enugu</NAME>
    <TOWN>Enugu</TOWN>
    <COUNTRY>Nigeria</COUNTRY>
    <IATA>ENU</IATA>
    <ICAO>DNEN</ICAO>
    <LATITUDE>6.47427200</LATITUDE>
    <LONGITUDE>7.56196100</LONGITUDE>
    <ELEV>466</ELEV>
    <UCS>1</UCS>
    <LETTER>N r</LETTER>
  </AIRPORT>
  <AIRPORT ID="263">
    <NAME>Gusau</NAME>
    <TOWN>Gusau</TOWN>
    <COUNTRY>Nigeria</COUNTRY>
    <IATA>QUS</IATA>
    <ICAO>DNGU</ICAO>
    <LATITUDE>12.17166700</LATITUDE>
    <LONGITUDE>6.69611100</LONGITUDE>
    <ELEV>1520</ELEV>
    <UCS>1</UCS>
    <LETTER>N r</LETTER>
  </AIRPORT>
  <AIRPORT ID="264">
    <NAME>Ibadan</NAME>
    <TOWN>Ibadan</TOWN>
    <COUNTRY>Nigeria</COUNTRY>
    <IATA>IBA</IATA>
    <ICAO>DNIB</ICAO>
    <LATITUDE>7.36245800</LATITUDE>
    <LONGITUDE>3.97833300</LONGITUDE>
    <ELEV>725</ELEV>
    <UCS>1</UCS>
    <LETTER>N r</LETTER>
  </AIRPORT>
  <AIRPORT ID="265">
    <NAME>Ilorin</NAME>
    <TOWN>Ilorin</TOWN>
    <COUNTRY>Nigeria</COUNTRY>
    <IATA>ILR</IATA>
    <ICAO>DNIL</ICAO>
    <LATITUDE>8.44021100</LATITUDE>
    <LONGITUDE>4.49391900</LONGITUDE>
    <ELEV>1126</ELEV>
    <UCS>1</UCS>
    <LETTER>N r</LETTER>
  </AIRPORT>
  <AIRPORT ID="266">
    <NAME>Yakubu Gowon</NAME>
    <TOWN>Jos</TOWN>
    <COUNTRY>Nigeria</COUNTRY>
    <IATA>JOS</IATA>
    <ICAO>DNJO</ICAO>
    <LATITUDE>9.63982800</LATITUDE>
    <LONGITUDE>8.86905000</LONGITUDE>
    <ELEV>4232</ELEV>
    <UCS>1</UCS>
    <LETTER>N r</LETTER>
  </AIRPORT>
  <AIRPORT ID="267">
    <NAME>Kaduna</NAME>
    <TOWN>Kaduna</TOWN>
    <COUNTRY>Nigeria</COUNTRY>
    <IATA>KAD</IATA>
    <ICAO>DNKA</ICAO>
    <LATITUDE>10.69602500</LATITUDE>
    <LONGITUDE>7.32011400</LONGITUDE>
    <ELEV>2073</ELEV>
    <UCS>1</UCS>
    <LETTER>N r</LETTER>
  </AIRPORT>
  <AIRPORT ID="268">
    <NAME>Mallam Aminu Intl</NAME>
    <TOWN>Kano</TOWN>
    <COUNTRY>Nigeria</COUNTRY>
    <IATA>KAN</IATA>
    <ICAO>DNKN</ICAO>
    <LATITUDE>12.04758900</LATITUDE>
    <LONGITUDE>8.52462200</LONGITUDE>
    <ELEV>1562</ELEV>
    <UCS>1</UCS>
    <LETTER>N r</LETTER>
  </AIRPORT>
  <AIRPORT ID="269">
    <NAME>Maiduguri</NAME>
    <TOWN>Maiduguri</TOWN>
    <COUNTRY>Nigeria</COUNTRY>
    <IATA>MIU</IATA>
    <ICAO>DNMA</ICAO>
    <LATITUDE>11.85534700</LATITUDE>
    <LONGITUDE>13.08095000</LONGITUDE>
    <ELEV>1099</ELEV>
    <UCS>1</UCS>
    <LETTER>N r</LETTER>
  </AIRPORT>
  <AIRPORT ID="270">
    <NAME>Makurdi</NAME>
    <TOWN>Makurdi</TOWN>
    <COUNTRY>Nigeria</COUNTRY>
    <IATA>MDI</IATA>
    <ICAO>DNMK</ICAO>
    <LATITUDE>7.70388300</LATITUDE>
    <LONGITUDE>8.61393900</LONGITUDE>
    <ELEV>371</ELEV>
    <UCS>1</UCS>
    <LETTER>N r</LETTER>
  </AIRPORT>
  <AIRPORT ID="271">
    <NAME>Murtala Muhammed</NAME>
    <TOWN>Lagos</TOWN>
    <COUNTRY>Nigeria</COUNTRY>
    <IATA>LOS</IATA>
    <ICAO>DNMM</ICAO>
    <LATITUDE>6.57736900</LATITUDE>
    <LONGITUDE>3.32115600</LONGITUDE>
    <ELEV>135</ELEV>
    <UCS>1</UCS>
    <LETTER>N r</LETTER>
  </AIRPORT>
  <AIRPORT ID="272">
    <NAME>Minna New</NAME>
    <TOWN>Minna</TOWN>
    <COUNTRY>Nigeria</COUNTRY>
    <IATA>MXJ</IATA>
    <ICAO>DNMN</ICAO>
    <LATITUDE>9.65217200</LATITUDE>
    <LONGITUDE>6.46225600</LONGITUDE>
    <ELEV>834</ELEV>
    <UCS>1</UCS>
    <LETTER>N r</LETTER>
  </AIRPORT>
  <AIRPORT ID="273">
    <NAME>Port Harcourt Intl</NAME>
    <TOWN>Port Hartcourt</TOWN>
    <COUNTRY>Nigeria</COUNTRY>
    <IATA>PHC</IATA>
    <ICAO>DNPO</ICAO>
    <LATITUDE>5.01549400</LATITUDE>
    <LONGITUDE>6.94959400</LONGITUDE>
    <ELEV>87</ELEV>
    <UCS>1</UCS>
    <LETTER>N r</LETTER>
  </AIRPORT>
  <AIRPORT ID="274">
    <NAME>Sadiq Abubakar Iii Intl</NAME>
    <TOWN>Sokoto</TOWN>
    <COUNTRY>Nigeria</COUNTRY>
    <IATA>SKO</IATA>
    <ICAO>DNSO</ICAO>
    <LATITUDE>12.91632200</LATITUDE>
    <LONGITUDE>5.20718900</LONGITUDE>
    <ELEV>1010</ELEV>
    <UCS>1</UCS>
    <LETTER>N r</LETTER>
  </AIRPORT>
  <AIRPORT ID="275">
    <NAME>Yola</NAME>
    <TOWN>Yola</TOWN>
    <COUNTRY>Nigeria</COUNTRY>
    <IATA>YOL</IATA>
    <ICAO>DNYO</ICAO>
    <LATITUDE>9.25755300</LATITUDE>
    <LONGITUDE>12.43042200</LONGITUDE>
    <ELEV>599</ELEV>
    <UCS>1</UCS>
    <LETTER>N r</LETTER>
  </AIRPORT>
  <AIRPORT ID="276">
    <NAME>Zaria</NAME>
    <TOWN>Zaria</TOWN>
    <COUNTRY>Nigeria</COUNTRY>
    <IATA>ZAR</IATA>
    <ICAO>DNZA</ICAO>
    <LATITUDE>11.13019200</LATITUDE>
    <LONGITUDE>7.68580600</LONGITUDE>
    <ELEV>2170</ELEV>
    <UCS>1</UCS>
    <LETTER>N r</LETTER>
  </AIRPORT>
  <AIRPORT ID="277">
    <NAME>Maradi</NAME>
    <TOWN>Maradi</TOWN>
    <COUNTRY>Niger</COUNTRY>
    <IATA>MFQ</IATA>
    <ICAO>DRRM</ICAO>
    <LATITUDE>13.50253100</LATITUDE>
    <LONGITUDE>7.12675300</LONGITUDE>
    <ELEV>1240</ELEV>
    <UCS>1</UCS>
    <LETTER>N r</LETTER>
  </AIRPORT>
  <AIRPORT ID="278">
    <NAME>Diori Hamani</NAME>
    <TOWN>Niamey</TOWN>
    <COUNTRY>Niger</COUNTRY>
    <IATA>NIM</IATA>
    <ICAO>DRRN</ICAO>
    <LATITUDE>13.48154700</LATITUDE>
    <LONGITUDE>2.18361400</LONGITUDE>
    <ELEV>732</ELEV>
    <UCS>1</UCS>
    <LETTER>N r</LETTER>
  </AIRPORT>
  <AIRPORT ID="279">
    <NAME>Tahoua</NAME>
    <TOWN>Tahoua</TOWN>
    <COUNTRY>Niger</COUNTRY>
    <IATA>THZ</IATA>
    <ICAO>DRRT</ICAO>
    <LATITUDE>14.87565800</LATITUDE>
    <LONGITUDE>5.26535800</LONGITUDE>
    <ELEV>1266</ELEV>
    <UCS>1</UCS>
    <LETTER>N r</LETTER>
  </AIRPORT>
  <AIRPORT ID="280">
    <NAME>Manu Dayak</NAME>
    <TOWN>Agadez</TOWN>
    <COUNTRY>Niger</COUNTRY>
    <IATA>AJY</IATA>
    <ICAO>DRZA</ICAO>
    <LATITUDE>16.96599700</LATITUDE>
    <LONGITUDE>8.00011400</LONGITUDE>
    <ELEV>1657</ELEV>
    <UCS>1</UCS>
    <LETTER>N r</LETTER>
  </AIRPORT>
  <AIRPORT ID="281">
    <NAME>Dirkou</NAME>
    <TOWN>Dirkou</TOWN>
    <COUNTRY>Niger</COUNTRY>
    <IATA>
    </IATA>
    <ICAO>DRZD</ICAO>
    <LATITUDE>18.96870300</LATITUDE>
    <LONGITUDE>12.86865000</LONGITUDE>
    <ELEV>1273</ELEV>
    <UCS>1</UCS>
    <LETTER>N r</LETTER>
  </AIRPORT>
  <AIRPORT ID="282">
    <NAME>Diffa</NAME>
    <TOWN>Diffa</TOWN>
    <COUNTRY>Niger</COUNTRY>
    <IATA>
    </IATA>
    <ICAO>DRZF</ICAO>
    <LATITUDE>13.37289400</LATITUDE>
    <LONGITUDE>12.62668600</LONGITUDE>
    <ELEV>994</ELEV>
    <UCS>1</UCS>
    <LETTER>N r</LETTER>
  </AIRPORT>
  <AIRPORT ID="283">
    <NAME>Zinder</NAME>
    <TOWN>Zinder</TOWN>
    <COUNTRY>Niger</COUNTRY>
    <IATA>ZND</IATA>
    <ICAO>DRZR</ICAO>
    <LATITUDE>13.77899700</LATITUDE>
    <LONGITUDE>8.98376100</LONGITUDE>
    <ELEV>1516</ELEV>
    <UCS>1</UCS>
    <LETTER>N r</LETTER>
  </AIRPORT>
  <AIRPORT ID="284">
    <NAME>Habib Bourguiba Intl</NAME>
    <TOWN>Monastir</TOWN>
    <COUNTRY>Tunisia</COUNTRY>
    <IATA>MIR</IATA>
    <ICAO>DTMB</ICAO>
    <LATITUDE>35.75805600</LATITUDE>
    <LONGITUDE>10.75472200</LONGITUDE>
    <ELEV>9</ELEV>
    <UCS>1</UCS>
    <LETTER>E r</LETTER>
  </AIRPORT>
  <AIRPORT ID="285">
    <NAME>Carthage</NAME>
    <TOWN>Tunis</TOWN>
    <COUNTRY>Tunisia</COUNTRY>
    <IATA>TUN</IATA>
    <ICAO>DTTA</ICAO>
    <LATITUDE>36.85103300</LATITUDE>
    <LONGITUDE>10.22721700</LONGITUDE>
    <ELEV>22</ELEV>
    <UCS>1</UCS>
    <LETTER>E r</LETTER>
  </AIRPORT>
  <AIRPORT ID="286">
    <NAME>Sidi Ahmed Air Base</NAME>
    <TOWN>Bizerte</TOWN>
    <COUNTRY>Tunisia</COUNTRY>
    <IATA>
    </IATA>
    <ICAO>DTTB</ICAO>
    <LATITUDE>37.24544700</LATITUDE>
    <LONGITUDE>9.79145300</LONGITUDE>
    <ELEV>20</ELEV>
    <UCS>1</UCS>
    <LETTER>E r</LETTER>
  </AIRPORT>
  <AIRPORT ID="287">
    <NAME>Remada</NAME>
    <TOWN>Remada</TOWN>
    <COUNTRY>Tunisia</COUNTRY>
    <IATA>
    </IATA>
    <ICAO>DTTD</ICAO>
    <LATITUDE>32.30615600</LATITUDE>
    <LONGITUDE>10.38210800</LONGITUDE>
    <ELEV>1004</ELEV>
    <UCS>1</UCS>
    <LETTER>E r</LETTER>
  </AIRPORT>
  <AIRPORT ID="288">
    <NAME>Gafsa</NAME>
    <TOWN>Gafsa</TOWN>
    <COUNTRY>Tunisia</COUNTRY>
    <IATA>GAF</IATA>
    <ICAO>DTTF</ICAO>
    <LATITUDE>34.42202200</LATITUDE>
    <LONGITUDE>8.82250300</LONGITUDE>
    <ELEV>1060</ELEV>
    <UCS>1</UCS>
    <LETTER>E r</LETTER>
  </AIRPORT>
  <AIRPORT ID="289">
    <NAME>Gabes</NAME>
    <TOWN>Gabes</TOWN>
    <COUNTRY>Tunisia</COUNTRY>
    <IATA>GAE</IATA>
    <ICAO>DTTG</ICAO>
    <LATITUDE>33.87691900</LATITUDE>
    <LONGITUDE>10.10333300</LONGITUDE>
    <ELEV>26</ELEV>
    <UCS>1</UCS>
    <LETTER>E r</LETTER>
  </AIRPORT>
  <AIRPORT ID="290">
    <NAME>Borj El Amri</NAME>
    <TOWN>Bordj El Amri</TOWN>
    <COUNTRY>Tunisia</COUNTRY>
    <IATA>
    </IATA>
    <ICAO>DTTI</ICAO>
    <LATITUDE>36.72133900</LATITUDE>
    <LONGITUDE>9.94314700</LONGITUDE>
    <ELEV>108</ELEV>
    <UCS>1</UCS>
    <LETTER>E r</LETTER>
  </AIRPORT>
  <AIRPORT ID="291">
    <NAME>Zarzis</NAME>
    <TOWN>Djerba</TOWN>
    <COUNTRY>Tunisia</COUNTRY>
    <IATA>DJE</IATA>
    <ICAO>DTTJ</ICAO>
    <LATITUDE>33.87503100</LATITUDE>
    <LONGITUDE>10.77546100</LONGITUDE>
    <ELEV>19</ELEV>
    <UCS>1</UCS>
    <LETTER>E r</LETTER>
  </AIRPORT>
  <AIRPORT ID="292">
    <NAME>El Borma</NAME>
    <TOWN>El Borma</TOWN>
    <COUNTRY>Tunisia</COUNTRY>
    <IATA>EBM</IATA>
    <ICAO>DTTR</ICAO>
    <LATITUDE>31.70428100</LATITUDE>
    <LONGITUDE>9.25461900</LONGITUDE>
    <ELEV>827</ELEV>
    <UCS>1</UCS>
    <LETTER>E r</LETTER>
  </AIRPORT>
  <AIRPORT ID="293">
    <NAME>Thyna</NAME>
    <TOWN>Sfax</TOWN>
    <COUNTRY>Tunisia</COUNTRY>
    <IATA>SFA</IATA>
    <ICAO>DTTX</ICAO>
    <LATITUDE>34.71795300</LATITUDE>
    <LONGITUDE>10.69097200</LONGITUDE>
    <ELEV>85</ELEV>
    <UCS>1</UCS>
    <LETTER>E r</LETTER>
  </AIRPORT>
  <AIRPORT ID="294">
    <NAME>Nefta</NAME>
    <TOWN>Tozeur</TOWN>
    <COUNTRY>Tunisia</COUNTRY>
    <IATA>TOE</IATA>
    <ICAO>DTTZ</ICAO>
    <LATITUDE>33.93972200</LATITUDE>
    <LONGITUDE>8.11055600</LONGITUDE>
    <ELEV>287</ELEV>
    <UCS>1</UCS>
    <LETTER>E r</LETTER>
  </AIRPORT>
  <AIRPORT ID="295">
    <NAME>Niamtougou International</NAME>
    <TOWN>Niatougou</TOWN>
    <COUNTRY>Togo</COUNTRY>
    <IATA>LRL</IATA>
    <ICAO>DXNG</ICAO>
    <LATITUDE>9.76733300</LATITUDE>
    <LONGITUDE>1.09125000</LONGITUDE>
    <ELEV>1515</ELEV>
    <UCS>1</UCS>
    <LETTER>N r</LETTER>
  </AIRPORT>
  <AIRPORT ID="296">
    <NAME>Gnassingbe Eyadema Intl</NAME>
    <TOWN>Lome</TOWN>
    <COUNTRY>Togo</COUNTRY>
    <IATA>LFW</IATA>
    <ICAO>DXXX</ICAO>
    <LATITUDE>6.16561100</LATITUDE>
    <LONGITUDE>1.25451100</LONGITUDE>
    <ELEV>72</ELEV>
    <UCS>1</UCS>
    <LETTER>N r</LETTER>
  </AIRPORT>
  <AIRPORT ID="297">
    <NAME>Deurne</NAME>
    <TOWN>Antwerp</TOWN>
    <COUNTRY>Belgium</COUNTRY>
    <IATA>ANR</IATA>
    <ICAO>EBAW</ICAO>
    <LATITUDE>51.18944400</LATITUDE>
    <LONGITUDE>4.46027800</LONGITUDE>
    <ELEV>39</ELEV>
    <UCS>1</UCS>
    <LETTER>E r</LETTER>
  </AIRPORT>
  <AIRPORT ID="298">
    <NAME>Beauvechain</NAME>
    <TOWN>Beauvechain</TOWN>
    <COUNTRY>Belgium</COUNTRY>
    <IATA>
    </IATA>
    <ICAO>EBBE</ICAO>
    <LATITUDE>50.75861000</LATITUDE>
    <LONGITUDE>4.76833300</LONGITUDE>
    <ELEV>370</ELEV>
    <UCS>1</UCS>
    <LETTER>E r</LETTER>
  </AIRPORT>
  <AIRPORT ID="299">
    <NAME>Kleine Brogel</NAME>
    <TOWN>Kleine Brogel</TOWN>
    <COUNTRY>Belgium</COUNTRY>
    <IATA>
    </IATA>
    <ICAO>EBBL</ICAO>
    <LATITUDE>51.16833300</LATITUDE>
    <LONGITUDE>5.47000000</LONGITUDE>
    <ELEV>200</ELEV>
    <UCS>1</UCS>
    <LETTER>E r</LETTER>
  </AIRPORT>
  <AIRPORT ID="300">
    <NAME>Brussels Natl</NAME>
    <TOWN>Brussels</TOWN>
    <COUNTRY>Belgium</COUNTRY>
    <IATA>BRU</IATA>
    <ICAO>EBBR</ICAO>
    <LATITUDE>50.90138900</LATITUDE>
    <LONGITUDE>4.48444400</LONGITUDE>
    <ELEV>184</ELEV>
    <UCS>1</UCS>
    <LETTER>E r</LETTER>
  </AIRPORT>
  <AIRPORT ID="301">
    <NAME>Bertrix</NAME>
    <TOWN>Bertrix</TOWN>
    <COUNTRY>Belgium</COUNTRY>
    <IATA>
    </IATA>
    <ICAO>EBBX</ICAO>
    <LATITUDE>49.89166700</LATITUDE>
    <LONGITUDE>5.22388900</LONGITUDE>
    <ELEV>1514</ELEV>
    <UCS>1</UCS>
    <LETTER>E r</LETTER>
  </AIRPORT>
  <AIRPORT ID="302">
    <NAME>Brussels South</NAME>
    <TOWN>Charleroi</TOWN>
    <COUNTRY>Belgium</COUNTRY>
    <IATA>CRL</IATA>
    <ICAO>EBCI</ICAO>
    <LATITUDE>50.45919700</LATITUDE>
    <LONGITUDE>4.45381700</LONGITUDE>
    <ELEV>614</ELEV>
    <UCS>1</UCS>
    <LETTER>E r</LETTER>
  </AIRPORT>
  <AIRPORT ID="303">
    <NAME>Chievres Ab</NAME>
    <TOWN>Chievres</TOWN>
    <COUNTRY>Belgium</COUNTRY>
    <IATA>
    </IATA>
    <ICAO>EBCV</ICAO>
    <LATITUDE>50.57583300</LATITUDE>
    <LONGITUDE>3.83100000</LONGITUDE>
    <ELEV>193</ELEV>
    <UCS>1</UCS>
    <LETTER>E r</LETTER>
  </AIRPORT>
  <AIRPORT ID="304">
    <NAME>Koksijde</NAME>
    <TOWN>Koksijde</TOWN>
    <COUNTRY>Belgium</COUNTRY>
    <IATA>
    </IATA>
    <ICAO>EBFN</ICAO>
    <LATITUDE>51.09027800</LATITUDE>
    <LONGITUDE>2.65277800</LONGITUDE>
    <ELEV>20</ELEV>
    <UCS>1</UCS>
    <LETTER>E r</LETTER>
  </AIRPORT>
  <AIRPORT ID="305">
    <NAME>Florennes</NAME>
    <TOWN>Florennes</TOWN>
    <COUNTRY>Belgium</COUNTRY>
    <IATA>
    </IATA>
    <ICAO>EBFS</ICAO>
    <LATITUDE>50.24333300</LATITUDE>
    <LONGITUDE>4.64583300</LONGITUDE>
    <ELEV>935</ELEV>
    <UCS>1</UCS>
    <LETTER>E r</LETTER>
  </AIRPORT>
  <AIRPORT ID="306">
    <NAME>Wevelgem</NAME>
    <TOWN>Kortrijk-vevelgem</TOWN>
    <COUNTRY>Belgium</COUNTRY>
    <IATA>QKT</IATA>
    <ICAO>EBKT</ICAO>
    <LATITUDE>50.81722200</LATITUDE>
    <LONGITUDE>3.20472200</LONGITUDE>
    <ELEV>64</ELEV>
    <UCS>1</UCS>
    <LETTER>E r</LETTER>
  </AIRPORT>
  <AIRPORT ID="307">
    <NAME>Liege</NAME>
    <TOWN>Liege</TOWN>
    <COUNTRY>Belgium</COUNTRY>
    <IATA>LGG</IATA>
    <ICAO>EBLG</ICAO>
    <LATITUDE>50.63741700</LATITUDE>
    <LONGITUDE>5.44322200</LONGITUDE>
    <ELEV>659</ELEV>
    <UCS>1</UCS>
    <LETTER>E r</LETTER>
  </AIRPORT>
  <AIRPORT ID="308">
    <NAME>Oostende</NAME>
    <TOWN>Ostend</TOWN>
    <COUNTRY>Belgium</COUNTRY>
    <IATA>OST</IATA>
    <ICAO>EBOS</ICAO>
    <LATITUDE>51.19888900</LATITUDE>
    <LONGITUDE>2.86222200</LONGITUDE>
    <ELEV>13</ELEV>
    <UCS>1</UCS>
    <LETTER>E r</LETTER>
  </AIRPORT>
  <AIRPORT ID="309">
    <NAME>Zutendaal</NAME>
    <TOWN>Zutendaal</TOWN>
    <COUNTRY>Belgium</COUNTRY>
    <IATA>
    </IATA>
    <ICAO>EBSL</ICAO>
    <LATITUDE>50.94750000</LATITUDE>
    <LONGITUDE>5.59055600</LONGITUDE>
    <ELEV>312</ELEV>
    <UCS>1</UCS>
    <LETTER>E r</LETTER>
  </AIRPORT>
  <AIRPORT ID="310">
    <NAME>Sint Truiden</NAME>
    <TOWN>Sint-truiden</TOWN>
    <COUNTRY>Belgium</COUNTRY>
    <IATA>
    </IATA>
    <ICAO>EBST</ICAO>
    <LATITUDE>50.79194400</LATITUDE>
    <LONGITUDE>5.20166700</LONGITUDE>
    <ELEV>246</ELEV>
    <UCS>1</UCS>
    <LETTER>E r</LETTER>
  </AIRPORT>
  <AIRPORT ID="311">
    <NAME>Saint Hubert Mil</NAME>
    <TOWN>St.-hubert</TOWN>
    <COUNTRY>Belgium</COUNTRY>
    <IATA>
    </IATA>
    <ICAO>EBSU</ICAO>
    <LATITUDE>50.03583300</LATITUDE>
    <LONGITUDE>5.40416700</LONGITUDE>
    <ELEV>1930</ELEV>
    <UCS>1</UCS>
    <LETTER>E r</LETTER>
  </AIRPORT>
  <AIRPORT ID="312">
    <NAME>Ursel</NAME>
    <TOWN>Ursel</TOWN>
    <COUNTRY>Belgium</COUNTRY>
    <IATA>
    </IATA>
    <ICAO>EBUL</ICAO>
    <LATITUDE>51.14413300</LATITUDE>
    <LONGITUDE>3.47436100</LONGITUDE>
    <ELEV>95</ELEV>
    <UCS>1</UCS>
    <LETTER>E r</LETTER>
  </AIRPORT>
  <AIRPORT ID="313">
    <NAME>Weelde</NAME>
    <TOWN>Weelde</TOWN>
    <COUNTRY>Belgium</COUNTRY>
    <IATA>
    </IATA>
    <ICAO>EBWE</ICAO>
    <LATITUDE>51.39478300</LATITUDE>
    <LONGITUDE>4.96019400</LONGITUDE>
    <ELEV>105</ELEV>
    <UCS>1</UCS>
    <LETTER>E r</LETTER>
  </AIRPORT>
  <AIRPORT ID="314">
    <NAME>Zoersel</NAME>
    <TOWN>Zoersel</TOWN>
    <COUNTRY>Belgium</COUNTRY>
    <IATA>
    </IATA>
    <ICAO>EBZR</ICAO>
    <LATITUDE>51.26472200</LATITUDE>
    <LONGITUDE>4.75333300</LONGITUDE>
    <ELEV>53</ELEV>
    <UCS>1</UCS>
    <LETTER>E r</LETTER>
  </AIRPORT>
  <AIRPORT ID="315">
    <NAME>Bautzen</NAME>
    <TOWN>Bautzen</TOWN>
    <COUNTRY>Germany</COUNTRY>
    <IATA>BBJ</IATA>
    <ICAO>EDAB</ICAO>
    <LATITUDE>51.19353100</LATITUDE>
    <LONGITUDE>14.51974700</LONGITUDE>
    <ELEV>568</ELEV>
    <UCS>1</UCS>
    <LETTER>E r</LETTER>
  </AIRPORT>
  <AIRPORT ID="316">
    <NAME>Altenburg Nobitz</NAME>
    <TOWN>Altenburg</TOWN>
    <COUNTRY>Germany</COUNTRY>
    <IATA>AOC</IATA>
    <ICAO>EDAC</ICAO>
    <LATITUDE>50.98181700</LATITUDE>
    <LONGITUDE>12.50636100</LONGITUDE>
    <ELEV>640</ELEV>
    <UCS>1</UCS>
    <LETTER>E r</LETTER>
  </AIRPORT>
  <AIRPORT ID="317">
    <NAME>Dessau</NAME>
    <TOWN>Dessau</TOWN>
    <COUNTRY>Germany</COUNTRY>
    <IATA>
    </IATA>
    <ICAO>EDAD</ICAO>
    <LATITUDE>51.83182800</LATITUDE>
    <LONGITUDE>12.18403300</LONGITUDE>
    <ELEV>187</ELEV>
