<?xml version="1.0" encoding="UTF-8"?>
<AIRPORTS>
  <AIRPORT ID="1">
    <NAME>Goroka</NAME>
    <IATA>GKA</IATA>
    <ICAO>AYGA</ICAO>
    <LATITUDE>0.00000000</LATITUDE>
    <LONGITUDE>0.00000000</LONGITUDE>
  </AIRPORT>
  <AIRPORT ID="2">
    <NAME>Madang</NAME>
    <IATA>MAG</IATA>
    <ICAO>AYMD</ICAO>
    <LATITUDE>0.00000000</LATITUDE>
    <LONGITUDE>0.00000000</LONGITUDE>
  </AIRPORT>
  <AIRPORT ID="3">
    <NAME>Mount Hagen</NAME>
    <IATA>HGU</IATA>
    <ICAO>AYMH</ICAO>
    <LATITUDE>0.00000000</LATITUDE>
    <LONGITUDE>0.00000000</LONGITUDE>
  </AIRPORT>
  <AIRPORT ID="4">
    <NAME>Nadzab</NAME>
    <IATA>LAE</IATA>
    <ICAO>AYNZ</ICAO>
    <LATITUDE>0.00000000</LATITUDE>
    <LONGITUDE>146.72624200</LONGITUDE>
  </AIRPORT>
  <AIRPORT ID="5">
    <NAME>Port Moresby Jacksons Intl</NAME>
    <IATA>POM</IATA>
    <ICAO>AYPY</ICAO>
    <LATITUDE>0.00000000</LATITUDE>
    <LONGITUDE>147.22005000</LONGITUDE>
  </AIRPORT>
  <AIRPORT ID="6">
    <NAME>Wewak Intl</NAME>
    <IATA>WWK</IATA>
    <ICAO>AYWK</ICAO>
    <LATITUDE>0.00000000</LATITUDE>
    <LONGITUDE>143.66918600</LONGITUDE>
  </AIRPORT>
  <AIRPORT ID="7">
    <NAME>Narsarsuaq</NAME>
    <IATA>UAK</IATA>
    <ICAO>BGBW</ICAO>
    <LATITUDE>0.00000000</LATITUDE>
    <LONGITUDE>-45.42597800</LONGITUDE>
  </AIRPORT>
  <AIRPORT ID="8">
    <NAME>Nuuk</NAME>
    <IATA>GOH</IATA>
    <ICAO>BGGH</ICAO>
    <LATITUDE>0.00000000</LATITUDE>
    <LONGITUDE>-51.67806400</LONGITUDE>
  </AIRPORT>
  <AIRPORT ID="9">
    <NAME>Sondre Stromfjord</NAME>
    <IATA>SFJ</IATA>
    <ICAO>BGSF</ICAO>
    <LATITUDE>0.00000000</LATITUDE>
    <LONGITUDE>0.00000000</LONGITUDE>
  </AIRPORT>
  <AIRPORT ID="10">
    <NAME>Thule Air Base</NAME>
    <IATA>THU</IATA>
    <ICAO>BGTL</ICAO>
    <LATITUDE>76.53120300</LATITUDE>
    <LONGITUDE>0.00000000</LONGITUDE>
  </AIRPORT>
  <AIRPORT ID="11">
    <NAME>Akureyri</NAME>
    <IATA>AEY</IATA>
    <ICAO>BIAR</ICAO>
    <LATITUDE>65.65999400</LATITUDE>
    <LONGITUDE>-18.07270300</LONGITUDE>
  </AIRPORT>
  <AIRPORT ID="12">
    <NAME>Egilsstadir</NAME>
    <IATA>EGS</IATA>
    <ICAO>BIEG</ICAO>
    <LATITUDE>65.28333300</LATITUDE>
    <LONGITUDE>0.00000000</LONGITUDE>
  </AIRPORT>
  <AIRPORT ID="13">
    <NAME>Hornafjordur</NAME>
    <IATA>HFN</IATA>
    <ICAO>BIHN</ICAO>
    <LATITUDE>64.29555600</LATITUDE>
    <LONGITUDE>0.00000000</LONGITUDE>
  </AIRPORT>
  <AIRPORT ID="14">
    <NAME>Husavik</NAME>
    <IATA>HZK</IATA>
    <ICAO>BIHU</ICAO>
    <LATITUDE>65.95232800</LATITUDE>
    <LONGITUDE>-17.42597800</LONGITUDE>
  </AIRPORT>
  <AIRPORT ID="15">
    <NAME>Isafjordur</NAME>
    <IATA>IFJ</IATA>
    <ICAO>BIIS</ICAO>
    <LATITUDE>66.05805600</LATITUDE>
    <LONGITUDE>-23.13527800</LONGITUDE>
  </AIRPORT>
  <AIRPORT ID="16">
    <NAME>Keflavik International Airport</NAME>
    <IATA>KEF</IATA>
    <ICAO>BIKF</ICAO>
    <LATITUDE>63.98500000</LATITUDE>
    <LONGITUDE>-22.60555600</LONGITUDE>
  </AIRPORT>
  <AIRPORT ID="17">
    <NAME>Patreksfjordur</NAME>
    <IATA>PFJ</IATA>
    <ICAO>BIPA</ICAO>
    <LATITUDE>65.55583300</LATITUDE>
    <LONGITUDE>-23.96500000</LONGITUDE>
  </AIRPORT>
  <AIRPORT ID="18">
    <NAME>Reykjavik</NAME>
    <IATA>RKV</IATA>
    <ICAO>BIRK</ICAO>
    <LATITUDE>64.13000000</LATITUDE>
    <LONGITUDE>-21.94055600</LONGITUDE>
  </AIRPORT>
  <AIRPORT ID="19">
    <NAME>Siglufjordur</NAME>
    <IATA>SIJ</IATA>
    <ICAO>BISI</ICAO>
    <LATITUDE>66.13333300</LATITUDE>
    <LONGITUDE>-18.91666700</LONGITUDE>
  </AIRPORT>
  <AIRPORT ID="20">
    <NAME>Vestmannaeyjar</NAME>
    <IATA>VEY</IATA>
    <ICAO>BIVM</ICAO>
    <LATITUDE>63.42430300</LATITUDE>
    <LONGITUDE>-20.27887500</LONGITUDE>
  </AIRPORT>
  <AIRPORT ID="21">
    <NAME>Sault Ste Marie</NAME>
    <IATA>YAM</IATA>
    <ICAO>CYAM</ICAO>
    <LATITUDE>46.48500100</LATITUDE>
    <LONGITUDE>-84.50944500</LONGITUDE>
  </AIRPORT>
  <AIRPORT ID="22">
    <NAME>Winnipeg St Andrews</NAME>
    <IATA>YAV</IATA>
    <ICAO>CYAV</ICAO>
    <LATITUDE>50.05638900</LATITUDE>
    <LONGITUDE>-97.03250000</LONGITUDE>
  </AIRPORT>
  <AIRPORT ID="23">
    <NAME>Shearwater</NAME>
    <IATA>YAW</IATA>
    <ICAO>CYAW</ICAO>
    <LATITUDE>44.63972100</LATITUDE>
    <LONGITUDE>-63.49944400</LONGITUDE>
  </AIRPORT>
  <AIRPORT ID="24">
    <NAME>St Anthony</NAME>
    <IATA>YAY</IATA>
    <ICAO>CYAY</ICAO>
    <LATITUDE>51.39194400</LATITUDE>
    <LONGITUDE>-56.08305600</LONGITUDE>
  </AIRPORT>
  <AIRPORT ID="25">
    <NAME>Tofino</NAME>
    <IATA>YAZ</IATA>
    <ICAO>CYAZ</ICAO>
    <LATITUDE>49.08222200</LATITUDE>
    <LONGITUDE>-125.77250000</LONGITUDE>
  </AIRPORT>
  <AIRPORT ID="26">
    <NAME>Kugaaruk</NAME>
    <IATA>YBB</IATA>
    <ICAO>CYBB</ICAO>
    <LATITUDE>68.53444400</LATITUDE>
    <LONGITUDE>-89.80805600</LONGITUDE>
  </AIRPORT>
  <AIRPORT ID="27">
    <NAME>Baie Comeau</NAME>
    <IATA>YBC</IATA>
    <ICAO>CYBC</ICAO>
    <LATITUDE>49.13250000</LATITUDE>
    <LONGITUDE>-68.20444400</LONGITUDE>
  </AIRPORT>
  <AIRPORT ID="28">
    <NAME>Bagotville</NAME>
    <IATA>YBG</IATA>
    <ICAO>CYBG</ICAO>
    <LATITUDE>48.33055500</LATITUDE>
    <LONGITUDE>-70.99639100</LONGITUDE>
  </AIRPORT>
  <AIRPORT ID="29">
    <NAME>Baker Lake</NAME>
    <IATA>YBK</IATA>
    <ICAO>CYBK</ICAO>
    <LATITUDE>64.29888900</LATITUDE>
    <LONGITUDE>-96.07777800</LONGITUDE>
  </AIRPORT>
  <AIRPORT ID="30">
    <NAME>Campbell River</NAME>
    <IATA>YBL</IATA>
    <ICAO>CYBL</ICAO>
    <LATITUDE>49.95083200</LATITUDE>
    <LONGITUDE>-125.27083300</LONGITUDE>
  </AIRPORT>
  <AIRPORT ID="31">
    <NAME>Brandon Muni</NAME>
    <IATA>YBR</IATA>
    <ICAO>CYBR</ICAO>
    <LATITUDE>49.91000000</LATITUDE>
    <LONGITUDE>-99.95194400</LONGITUDE>
  </AIRPORT>
  <AIRPORT ID="32">
    <NAME>Cambridge Bay</NAME>
    <IATA>YCB</IATA>
    <ICAO>CYCB</ICAO>
    <LATITUDE>69.10805500</LATITUDE>
    <LONGITUDE>-105.13833300</LONGITUDE>
  </AIRPORT>
  <AIRPORT ID="33">
    <NAME>Nanaimo</NAME>
    <IATA>YCD</IATA>
    <ICAO>CYCD</ICAO>
    <LATITUDE>49.05233300</LATITUDE>
    <LONGITUDE>-123.87016700</LONGITUDE>
  </AIRPORT>
  <AIRPORT ID="34">
    <NAME>Castlegar</NAME>
    <IATA>YCG</IATA>
    <ICAO>CYCG</ICAO>
    <LATITUDE>49.29638900</LATITUDE>
    <LONGITUDE>-117.63250000</LONGITUDE>
  </AIRPORT>
  <AIRPORT ID="35">
    <NAME>Miramichi</NAME>
    <IATA>YCH</IATA>
    <ICAO>CYCH</ICAO>
    <LATITUDE>47.00777800</LATITUDE>
    <LONGITUDE>-65.44916700</LONGITUDE>
  </AIRPORT>
  <AIRPORT ID="36">
    <NAME>Charlo</NAME>
    <IATA>YCL</IATA>
    <ICAO>CYCL</ICAO>
    <LATITUDE>47.99083300</LATITUDE>
    <LONGITUDE>-66.33027800</LONGITUDE>
  </AIRPORT>
  <AIRPORT ID="37">
    <NAME>Kugluktuk</NAME>
    <IATA>YCO</IATA>
    <ICAO>CYCO</ICAO>
    <LATITUDE>67.81666700</LATITUDE>
    <LONGITUDE>-115.14388900</LONGITUDE>
  </AIRPORT>
  <AIRPORT ID="38">
    <NAME>Coronation</NAME>
    <IATA>YCT</IATA>
    <ICAO>CYCT</ICAO>
    <LATITUDE>52.07500100</LATITUDE>
    <LONGITUDE>-111.44527800</LONGITUDE>
  </AIRPORT>
  <AIRPORT ID="39">
    <NAME>Chilliwack</NAME>
    <IATA>YCW</IATA>
    <ICAO>CYCW</ICAO>
    <LATITUDE>49.15277900</LATITUDE>
    <LONGITUDE>-121.93889000</LONGITUDE>
  </AIRPORT>
  <AIRPORT ID="40">
    <NAME>Clyde River</NAME>
    <IATA>YCY</IATA>
    <ICAO>CYCY</ICAO>
    <LATITUDE>70.48611100</LATITUDE>
    <LONGITUDE>-68.51666700</LONGITUDE>
  </AIRPORT>
  <AIRPORT ID="41">
    <NAME>Fairmont Hot Springs</NAME>
    <IATA>YZS</IATA>
    <ICAO>CYCZ</ICAO>
    <LATITUDE>64.19333300</LATITUDE>
    <LONGITUDE>-83.35944400</LONGITUDE>
  </AIRPORT>
  <AIRPORT ID="42">
    <NAME>Dawson City</NAME>
    <IATA>YDA</IATA>
    <ICAO>CYDA</ICAO>
    <LATITUDE>64.04305600</LATITUDE>
    <LONGITUDE>-139.12777800</LONGITUDE>
  </AIRPORT>
  <AIRPORT ID="43">
    <NAME>Burwash</NAME>
    <IATA>YDB</IATA>
    <ICAO>CYDB</ICAO>
    <LATITUDE>61.37111100</LATITUDE>
    <LONGITUDE>-139.04055600</LONGITUDE>
  </AIRPORT>
  <AIRPORT ID="44">
    <NAME>Princeton</NAME>
    <IATA>YDC</IATA>
    <ICAO>CYDC</ICAO>
    <LATITUDE>49.46805600</LATITUDE>
    <LONGITUDE>-120.51138900</LONGITUDE>
  </AIRPORT>
  <AIRPORT ID="45">
    <NAME>Deer Lake</NAME>
    <IATA>YDF</IATA>
    <ICAO>CYDF</ICAO>
    <LATITUDE>49.21083300</LATITUDE>
    <LONGITUDE>-57.39138800</LONGITUDE>
  </AIRPORT>
  <AIRPORT ID="46">
    <NAME>Dease Lake</NAME>
    <IATA>YDL</IATA>
    <ICAO>CYDL</ICAO>
    <LATITUDE>58.42222200</LATITUDE>
    <LONGITUDE>-130.03222200</LONGITUDE>
  </AIRPORT>
  <AIRPORT ID="47">
    <NAME>Dauphin Barker</NAME>
    <IATA>YDN</IATA>
    <ICAO>CYDN</ICAO>
    <LATITUDE>51.10083400</LATITUDE>
    <LONGITUDE>-100.05250000</LONGITUDE>
  </AIRPORT>
  <AIRPORT ID="48">
    <NAME>Dawson Creek</NAME>
    <IATA>YDQ</IATA>
    <ICAO>CYDQ</ICAO>
    <LATITUDE>55.74233300</LATITUDE>
    <LONGITUDE>-120.18300000</LONGITUDE>
  </AIRPORT>
  <AIRPORT ID="49">
    <NAME>Edmonton Intl</NAME>
    <IATA>YEG</IATA>
    <ICAO>CYEG</ICAO>
    <LATITUDE>53.30972300</LATITUDE>
    <LONGITUDE>-113.57972200</LONGITUDE>
  </AIRPORT>
  <AIRPORT ID="50">
    <NAME>Arviat</NAME>
    <IATA>YEK</IATA>
    <ICAO>CYEK</ICAO>
    <LATITUDE>61.09416600</LATITUDE>
    <LONGITUDE>-94.07083300</LONGITUDE>
  </AIRPORT>
  <AIRPORT ID="51">
    <NAME>Estevan</NAME>
    <IATA>YEN</IATA>
    <ICAO>CYEN</ICAO>
    <LATITUDE>49.21027800</LATITUDE>
    <LONGITUDE>-102.96583300</LONGITUDE>
  </AIRPORT>
  <AIRPORT ID="52">
    <NAME>Edson</NAME>
    <IATA>YET</IATA>
    <ICAO>CYET</ICAO>
    <LATITUDE>53.57888800</LATITUDE>
    <LONGITUDE>-116.46500000</LONGITUDE>
  </AIRPORT>
  <AIRPORT ID="53">
    <NAME>Eureka</NAME>
    <IATA>YEU</IATA>
    <ICAO>CYEU</ICAO>
    <LATITUDE>79.99472200</LATITUDE>
    <LONGITUDE>-85.81416700</LONGITUDE>
  </AIRPORT>
  <AIRPORT ID="54">
    <NAME>Inuvik Mike Zubko</NAME>
    <IATA>YEV</IATA>
    <ICAO>CYEV</ICAO>
    <LATITUDE>68.30416700</LATITUDE>
    <LONGITUDE>-133.48277800</LONGITUDE>
  </AIRPORT>
  <AIRPORT ID="55">
    <NAME>Iqaluit</NAME>
    <IATA>YFB</IATA>
    <ICAO>CYFB</ICAO>
    <LATITUDE>63.75639000</LATITUDE>
    <LONGITUDE>-68.55583200</LONGITUDE>
  </AIRPORT>
  <AIRPORT ID="56">
    <NAME>Fredericton</NAME>
    <IATA>YFC</IATA>
    <ICAO>CYFC</ICAO>
    <LATITUDE>45.86888900</LATITUDE>
    <LONGITUDE>-66.53722200</LONGITUDE>
  </AIRPORT>
  <AIRPORT ID="57">
    <NAME>Forestville</NAME>
    <IATA>
    </IATA>
    <ICAO>CYFE</ICAO>
    <LATITUDE>48.74611100</LATITUDE>
    <LONGITUDE>-69.09722200</LONGITUDE>
  </AIRPORT>
  <AIRPORT ID="58">
    <NAME>Flin Flon</NAME>
    <IATA>YFO</IATA>
    <ICAO>CYFO</ICAO>
    <LATITUDE>54.67805500</LATITUDE>
    <LONGITUDE>-101.68166700</LONGITUDE>
  </AIRPORT>
  <AIRPORT ID="59">
    <NAME>Fort Resolution</NAME>
    <IATA>YFR</IATA>
    <ICAO>CYFR</ICAO>
    <LATITUDE>61.18083200</LATITUDE>
    <LONGITUDE>-113.68972200</LONGITUDE>
  </AIRPORT>
  <AIRPORT ID="60">
    <NAME>Fort Simpson</NAME>
    <IATA>YFS</IATA>
    <ICAO>CYFS</ICAO>
    <LATITUDE>61.76015300</LATITUDE>
    <LONGITUDE>-121.23652500</LONGITUDE>
  </AIRPORT>
  <AIRPORT ID="61">
    <NAME>Kingston</NAME>
    <IATA>YGK</IATA>
    <ICAO>CYGK</ICAO>
    <LATITUDE>44.22527700</LATITUDE>
    <LONGITUDE>-76.59694400</LONGITUDE>
  </AIRPORT>
  <AIRPORT ID="62">
    <NAME>La Grande Riviere</NAME>
    <IATA>YGL</IATA>
    <ICAO>CYGL</ICAO>
    <LATITUDE>53.62527800</LATITUDE>
    <LONGITUDE>-77.70416700</LONGITUDE>
  </AIRPORT>
  <AIRPORT ID="63">
    <NAME>Gaspe</NAME>
    <IATA>YGP</IATA>
    <ICAO>CYGP</ICAO>
    <LATITUDE>48.77527800</LATITUDE>
    <LONGITUDE>-64.47861100</LONGITUDE>
  </AIRPORT>
  <AIRPORT ID="64">
    <NAME>Geraldton Greenstone Regional</NAME>
    <IATA>YGQ</IATA>
    <ICAO>CYGQ</ICAO>
    <LATITUDE>49.77833200</LATITUDE>
    <LONGITUDE>-86.93944500</LONGITUDE>
  </AIRPORT>
  <AIRPORT ID="65">
    <NAME>Iles De La Madeleine</NAME>
    <IATA>YGR</IATA>
    <ICAO>CYGR</ICAO>
    <LATITUDE>47.42472100</LATITUDE>
    <LONGITUDE>-61.77805600</LONGITUDE>
  </AIRPORT>
  <AIRPORT ID="66">
    <NAME>Hudson Bay</NAME>
    <IATA>YHB</IATA>
    <ICAO>CYHB</ICAO>
    <LATITUDE>52.81666600</LATITUDE>
    <LONGITUDE>-102.31139000</LONGITUDE>
  </AIRPORT>
  <AIRPORT ID="67">
    <NAME>Dryden Rgnl</NAME>
    <IATA>YHD</IATA>
    <ICAO>CYHD</ICAO>
    <LATITUDE>49.83166700</LATITUDE>
    <LONGITUDE>-92.74416700</LONGITUDE>
  </AIRPORT>
  <AIRPORT ID="68">
    <NAME>Ulukhaktok Holman</NAME>
    <IATA>YHI</IATA>
    <ICAO>CYHI</ICAO>
    <LATITUDE>70.76277800</LATITUDE>
    <LONGITUDE>-117.80611100</LONGITUDE>
  </AIRPORT>
  <AIRPORT ID="69">
    <NAME>Gjoa Haven</NAME>
    <IATA>YHK</IATA>
    <ICAO>CYHK</ICAO>
    <LATITUDE>68.63555600</LATITUDE>
    <LONGITUDE>-95.84972200</LONGITUDE>
  </AIRPORT>
  <AIRPORT ID="70">
    <NAME>Hamilton</NAME>
    <IATA>YHM</IATA>
    <ICAO>CYHM</ICAO>
    <LATITUDE>43.17361100</LATITUDE>
    <LONGITUDE>-79.93500000</LONGITUDE>
  </AIRPORT>
  <AIRPORT ID="71">
    <NAME>St Hubert</NAME>
    <IATA>YHU</IATA>
    <ICAO>CYHU</ICAO>
    <LATITUDE>45.51750000</LATITUDE>
    <LONGITUDE>-73.41694400</LONGITUDE>
  </AIRPORT>
  <AIRPORT ID="72">
    <NAME>Hay River</NAME>
    <IATA>YHY</IATA>
    <ICAO>CYHY</ICAO>
    <LATITUDE>60.83972200</LATITUDE>
    <LONGITUDE>-115.78277800</LONGITUDE>
  </AIRPORT>
  <AIRPORT ID="73">
    <NAME>Halifax Intl</NAME>
    <IATA>YHZ</IATA>
    <ICAO>CYHZ</ICAO>
    <LATITUDE>44.88083300</LATITUDE>
    <LONGITUDE>-63.50861000</LONGITUDE>
  </AIRPORT>
  <AIRPORT ID="74">
    <NAME>Atikokan Muni</NAME>
    <IATA>YIB</IATA>
    <ICAO>CYIB</ICAO>
    <LATITUDE>48.77388800</LATITUDE>
    <LONGITUDE>-91.63861100</LONGITUDE>
  </AIRPORT>
  <AIRPORT ID="75">
    <NAME>Pond Inlet</NAME>
    <IATA>YIO</IATA>
    <ICAO>CYIO</ICAO>
    <LATITUDE>72.68333400</LATITUDE>
    <LONGITUDE>-77.96666700</LONGITUDE>
  </AIRPORT>
  <AIRPORT ID="76">
    <NAME>St Jean</NAME>
    <IATA>YJN</IATA>
    <ICAO>CYJN</ICAO>
    <LATITUDE>45.29444500</LATITUDE>
    <LONGITUDE>-73.28111100</LONGITUDE>
  </AIRPORT>
  <AIRPORT ID="77">
    <NAME>Stephenville</NAME>
    <IATA>YJT</IATA>
    <ICAO>CYJT</ICAO>
    <LATITUDE>48.54416700</LATITUDE>
    <LONGITUDE>-58.54999900</LONGITUDE>
  </AIRPORT>
  <AIRPORT ID="78">
    <NAME>Kamloops</NAME>
    <IATA>YKA</IATA>
    <ICAO>CYKA</ICAO>
    <LATITUDE>50.70222200</LATITUDE>
    <LONGITUDE>-120.44444400</LONGITUDE>
  </AIRPORT>
  <AIRPORT ID="79">
    <NAME>Waterloo</NAME>
    <IATA>YKF</IATA>
    <ICAO>CYKF</ICAO>
    <LATITUDE>43.46083300</LATITUDE>
    <LONGITUDE>-80.37861100</LONGITUDE>
  </AIRPORT>
  <AIRPORT ID="80">
    <NAME>Schefferville</NAME>
    <IATA>YKL</IATA>
    <ICAO>CYKL</ICAO>
    <LATITUDE>54.80527800</LATITUDE>
    <LONGITUDE>-66.80527800</LONGITUDE>
  </AIRPORT>
  <AIRPORT ID="81">
    <NAME>Kindersley</NAME>
    <IATA>YKY</IATA>
    <ICAO>CYKY</ICAO>
    <LATITUDE>51.51750000</LATITUDE>
    <LONGITUDE>-109.18083300</LONGITUDE>
  </AIRPORT>
  <AIRPORT ID="82">
    <NAME>Buttonville Muni</NAME>
    <IATA>YKZ</IATA>
    <ICAO>CYKZ</ICAO>
    <LATITUDE>43.86222100</LATITUDE>
    <LONGITUDE>-79.37000000</LONGITUDE>
  </AIRPORT>
  <AIRPORT ID="83">
    <NAME>Chapleau</NAME>
    <IATA>YLD</IATA>
    <ICAO>CYLD</ICAO>
    <LATITUDE>47.82000000</LATITUDE>
    <LONGITUDE>-83.34666700</LONGITUDE>
  </AIRPORT>
  <AIRPORT ID="84">
    <NAME>Meadow Lake</NAME>
    <IATA>YLJ</IATA>
    <ICAO>CYLJ</ICAO>
    <LATITUDE>54.12527800</LATITUDE>
    <LONGITUDE>-108.52277800</LONGITUDE>
  </AIRPORT>
  <AIRPORT ID="85">
    <NAME>Lloydminster</NAME>
    <IATA>YLL</IATA>
    <ICAO>CYLL</ICAO>
    <LATITUDE>53.30916600</LATITUDE>
    <LONGITUDE>-110.07250000</LONGITUDE>
  </AIRPORT>
  <AIRPORT ID="86">
    <NAME>Alert</NAME>
    <IATA>YLT</IATA>
    <ICAO>CYLT</ICAO>
    <LATITUDE>82.51777800</LATITUDE>
    <LONGITUDE>-62.28055600</LONGITUDE>
  </AIRPORT>
  <AIRPORT ID="87">
    <NAME>Kelowna</NAME>
    <IATA>YLW</IATA>
    <ICAO>CYLW</ICAO>
    <LATITUDE>49.95611200</LATITUDE>
    <LONGITUDE>-119.37777800</LONGITUDE>
  </AIRPORT>
  <AIRPORT ID="88">
    <NAME>Mayo</NAME>
    <IATA>YMA</IATA>
    <ICAO>CYMA</ICAO>
    <LATITUDE>63.61638900</LATITUDE>
    <LONGITUDE>-135.86833300</LONGITUDE>
  </AIRPORT>
  <AIRPORT ID="89">
    <NAME>Moose Jaw Air Vice Marshal C M Mcewen</NAME>
    <IATA>YMJ</IATA>
    <ICAO>CYMJ</ICAO>
    <LATITUDE>50.33027800</LATITUDE>
    <LONGITUDE>-105.55916700</LONGITUDE>
  </AIRPORT>
  <AIRPORT ID="90">
    <NAME>Fort Mcmurray</NAME>
    <IATA>YMM</IATA>
    <ICAO>CYMM</ICAO>
    <LATITUDE>56.65333300</LATITUDE>
    <LONGITUDE>-111.22194400</LONGITUDE>
  </AIRPORT>
  <AIRPORT ID="91">
    <NAME>Moosonee</NAME>
    <IATA>YMO</IATA>
    <ICAO>CYMO</ICAO>
    <LATITUDE>51.29111100</LATITUDE>
    <LONGITUDE>-80.60777800</LONGITUDE>
  </AIRPORT>
  <AIRPORT ID="92">
    <NAME>Maniwaki</NAME>
    <IATA>YMW</IATA>
    <ICAO>CYMW</ICAO>
    <LATITUDE>46.27277800</LATITUDE>
    <LONGITUDE>-75.99055600</LONGITUDE>
  </AIRPORT>
  <AIRPORT ID="93">
    <NAME>Montreal Intl Mirabel</NAME>
    <IATA>YMX</IATA>
    <ICAO>CYMX</ICAO>
    <LATITUDE>45.68194400</LATITUDE>
    <LONGITUDE>-74.00527800</LONGITUDE>
  </AIRPORT>
  <AIRPORT ID="94">
    <NAME>Natashquan</NAME>
    <IATA>YNA</IATA>
    <ICAO>CYNA</ICAO>
    <LATITUDE>50.19000000</LATITUDE>
    <LONGITUDE>-61.78916700</LONGITUDE>
  </AIRPORT>
  <AIRPORT ID="95">
    <NAME>Gatineau</NAME>
    <IATA>YND</IATA>
    <ICAO>CYND</ICAO>
    <LATITUDE>45.52169400</LATITUDE>
    <LONGITUDE>-75.56358900</LONGITUDE>
  </AIRPORT>
  <AIRPORT ID="96">
    <NAME>Matagami</NAME>
    <IATA>YNM</IATA>
    <ICAO>CYNM</ICAO>
    <LATITUDE>49.76166700</LATITUDE>
    <LONGITUDE>-77.80277800</LONGITUDE>
  </AIRPORT>
  <AIRPORT ID="97">
    <NAME>Old Crow</NAME>
    <IATA>YOC</IATA>
    <ICAO>CYOC</ICAO>
    <LATITUDE>67.57055600</LATITUDE>
    <LONGITUDE>-139.83916700</LONGITUDE>
  </AIRPORT>
  <AIRPORT ID="98">
    <NAME>Cold Lake</NAME>
    <IATA>YOD</IATA>
    <ICAO>CYOD</ICAO>
    <LATITUDE>54.40499900</LATITUDE>
    <LONGITUDE>-110.27944400</LONGITUDE>
  </AIRPORT>
  <AIRPORT ID="99">
    <NAME>High Level</NAME>
    <IATA>YOJ</IATA>
    <ICAO>CYOJ</ICAO>
    <LATITUDE>58.62138900</LATITUDE>
    <LONGITUDE>-117.16472200</LONGITUDE>
  </AIRPORT>
  <AIRPORT ID="100">
    <NAME>Ottawa Macdonald Cartier Intl</NAME>
    <IATA>YOW</IATA>
    <ICAO>CYOW</ICAO>
    <LATITUDE>45.32250000</LATITUDE>
    <LONGITUDE>-75.66916700</LONGITUDE>
  </AIRPORT>
  <AIRPORT ID="101">
    <NAME>Prince Albert Glass Field</NAME>
    <IATA>YPA</IATA>
    <ICAO>CYPA</ICAO>
    <LATITUDE>53.21416700</LATITUDE>
    <LONGITUDE>-105.67277800</LONGITUDE>
  </AIRPORT>
  <AIRPORT ID="102">
    <NAME>Peace River</NAME>
    <IATA>YPE</IATA>
    <ICAO>CYPE</ICAO>
    <LATITUDE>56.22694400</LATITUDE>
    <LONGITUDE>-117.44722200</LONGITUDE>
  </AIRPORT>
  <AIRPORT ID="103">
    <NAME>Southport</NAME>
    <IATA>YPG</IATA>
    <ICAO>CYPG</ICAO>
    <LATITUDE>49.90305600</LATITUDE>
    <LONGITUDE>-98.27388900</LONGITUDE>
  </AIRPORT>
  <AIRPORT ID="104">
    <NAME>Pitt Meadows</NAME>
    <IATA>
    </IATA>
    <ICAO>CYPK</ICAO>
    <LATITUDE>49.21611000</LATITUDE>
    <LONGITUDE>-122.71000000</LONGITUDE>
  </AIRPORT>
  <AIRPORT ID="105">
    <NAME>Pickle Lake</NAME>
    <IATA>YPL</IATA>
    <ICAO>CYPL</ICAO>
    <LATITUDE>51.44638800</LATITUDE>
    <LONGITUDE>-90.21416700</LONGITUDE>
  </AIRPORT>
  <AIRPORT ID="106">
    <NAME>Port Menier</NAME>
    <IATA>YPN</IATA>
    <ICAO>CYPN</ICAO>
    <LATITUDE>49.83638900</LATITUDE>
    <LONGITUDE>-64.28861100</LONGITUDE>
  </AIRPORT>
  <AIRPORT ID="107">
    <NAME>Peterborough</NAME>
    <IATA>YPQ</IATA>
    <ICAO>CYPQ</ICAO>
    <LATITUDE>44.23000000</LATITUDE>
    <LONGITUDE>-78.36333300</LONGITUDE>
  </AIRPORT>
  <AIRPORT ID="108">
    <NAME>Prince Rupert</NAME>
    <IATA>YPR</IATA>
    <ICAO>CYPR</ICAO>
    <LATITUDE>54.28611000</LATITUDE>
    <LONGITUDE>-130.44472200</LONGITUDE>
  </AIRPORT>
  <AIRPORT ID="109">
    <NAME>Fort Chipewyan</NAME>
    <IATA>YPY</IATA>
    <ICAO>CYPY</ICAO>
    <LATITUDE>58.76722300</LATITUDE>
    <LONGITUDE>-111.11722200</LONGITUDE>
  </AIRPORT>
  <AIRPORT ID="110">
    <NAME>Muskoka</NAME>
    <IATA>YQA</IATA>
    <ICAO>CYQA</ICAO>
    <LATITUDE>44.97472200</LATITUDE>
    <LONGITUDE>-79.30333300</LONGITUDE>
  </AIRPORT>
  <AIRPORT ID="111">
    <NAME>Quebec Jean Lesage Intl</NAME>
    <IATA>YQB</IATA>
    <ICAO>CYQB</ICAO>
    <LATITUDE>46.79111100</LATITUDE>
    <LONGITUDE>-71.39333300</LONGITUDE>
  </AIRPORT>
  <AIRPORT ID="112">
    <NAME>Red Deer Regional</NAME>
    <IATA>YQF</IATA>
    <ICAO>CYQF</ICAO>
    <LATITUDE>52.18222200</LATITUDE>
    <LONGITUDE>-113.89444400</LONGITUDE>
  </AIRPORT>
  <AIRPORT ID="113">
    <NAME>Windsor</NAME>
    <IATA>YQG</IATA>
    <ICAO>CYQG</ICAO>
    <LATITUDE>42.27555600</LATITUDE>
    <LONGITUDE>-82.95555600</LONGITUDE>
  </AIRPORT>
  <AIRPORT ID="114">
    <NAME>Watson Lake</NAME>
    <IATA>YQH</IATA>
    <ICAO>CYQH</ICAO>
    <LATITUDE>60.11638900</LATITUDE>
    <LONGITUDE>-128.82250000</LONGITUDE>
  </AIRPORT>
  <AIRPORT ID="115">
    <NAME>Kenora</NAME>
    <IATA>YQK</IATA>
    <ICAO>CYQK</ICAO>
    <LATITUDE>49.78833400</LATITUDE>
    <LONGITUDE>-94.36305600</LONGITUDE>
  </AIRPORT>
  <AIRPORT ID="116">
    <NAME>Lethbridge</NAME>
    <IATA>YQL</IATA>
    <ICAO>CYQL</ICAO>
    <LATITUDE>49.63027800</LATITUDE>
    <LONGITUDE>-112.79972200</LONGITUDE>
  </AIRPORT>
  <AIRPORT ID="117">
    <NAME>Greater Moncton Intl</NAME>
    <IATA>YQM</IATA>
    <ICAO>CYQM</ICAO>
    <LATITUDE>46.11222100</LATITUDE>
    <LONGITUDE>-64.67861100</LONGITUDE>
  </AIRPORT>
  <AIRPORT ID="118">
    <NAME>Comox</NAME>
    <IATA>YQQ</IATA>
    <ICAO>CYQQ</ICAO>
    <LATITUDE>49.71083300</LATITUDE>
    <LONGITUDE>-124.88666700</LONGITUDE>
  </AIRPORT>
  <AIRPORT ID="119">
    <NAME>Regina Intl</NAME>
    <IATA>YQR</IATA>
    <ICAO>CYQR</ICAO>
    <LATITUDE>50.43194400</LATITUDE>
    <LONGITUDE>-104.66583300</LONGITUDE>
  </AIRPORT>
  <AIRPORT ID="120">
    <NAME>Thunder Bay</NAME>
    <IATA>YQT</IATA>
    <ICAO>CYQT</ICAO>
    <LATITUDE>48.37194400</LATITUDE>
    <LONGITUDE>-89.32388900</LONGITUDE>
  </AIRPORT>
  <AIRPORT ID="121">
    <NAME>Grande Prairie</NAME>
    <IATA>YQU</IATA>
    <ICAO>CYQU</ICAO>
    <LATITUDE>55.17972200</LATITUDE>
    <LONGITUDE>-118.88500000</LONGITUDE>
  </AIRPORT>
  <AIRPORT ID="122">
    <NAME>Yorkton Muni</NAME>
    <IATA>YQV</IATA>
    <ICAO>CYQV</ICAO>
    <LATITUDE>51.26472100</LATITUDE>
    <LONGITUDE>-102.46166700</LONGITUDE>
  </AIRPORT>
  <AIRPORT ID="123">
    <NAME>North Battleford</NAME>
    <IATA>YQW</IATA>
    <ICAO>CYQW</ICAO>
    <LATITUDE>52.76916700</LATITUDE>
    <LONGITUDE>-108.24361000</LONGITUDE>
  </AIRPORT>
  <AIRPORT ID="124">
    <NAME>Gander Intl</NAME>
    <IATA>YQX</IATA>
    <ICAO>CYQX</ICAO>
    <LATITUDE>48.93694400</LATITUDE>
    <LONGITUDE>-54.56805600</LONGITUDE>
  </AIRPORT>
  <AIRPORT ID="125">
    <NAME>Sydney</NAME>
    <IATA>YQY</IATA>
    <ICAO>CYQY</ICAO>
    <LATITUDE>46.16138800</LATITUDE>
    <LONGITUDE>-60.04777900</LONGITUDE>
  </AIRPORT>
  <AIRPORT ID="126">
    <NAME>Quesnel</NAME>
    <IATA>YQZ</IATA>
    <ICAO>CYQZ</ICAO>
    <LATITUDE>53.02611200</LATITUDE>
    <LONGITUDE>-122.51027800</LONGITUDE>
  </AIRPORT>
  <AIRPORT ID="127">
    <NAME>Resolute Bay</NAME>
    <IATA>YRB</IATA>
    <ICAO>CYRB</ICAO>
    <LATITUDE>74.71694400</LATITUDE>
    <LONGITUDE>-94.96944400</LONGITUDE>
  </AIRPORT>
  <AIRPORT ID="128">
    <NAME>Riviere Du Loup</NAME>
    <IATA>YRI</IATA>
    <ICAO>CYRI</ICAO>
    <LATITUDE>47.76444400</LATITUDE>
    <LONGITUDE>-69.58472200</LONGITUDE>
  </AIRPORT>
  <AIRPORT ID="129">
    <NAME>Roberval</NAME>
    <IATA>YRJ</IATA>
    <ICAO>CYRJ</ICAO>
    <LATITUDE>48.52000000</LATITUDE>
    <LONGITUDE>-72.26555600</LONGITUDE>
  </AIRPORT>
  <AIRPORT ID="130">
    <NAME>Rocky Mountain House</NAME>
    <IATA>YRM</IATA>
    <ICAO>CYRM</ICAO>
    <LATITUDE>52.42972200</LATITUDE>
    <LONGITUDE>-114.90416700</LONGITUDE>
  </AIRPORT>
  <AIRPORT ID="131">
    <NAME>Rankin Inlet</NAME>
    <IATA>YRT</IATA>
    <ICAO>CYRT</ICAO>
    <LATITUDE>62.81139000</LATITUDE>
    <LONGITUDE>-92.11583300</LONGITUDE>
  </AIRPORT>
  <AIRPORT ID="132">
    <NAME>Sudbury</NAME>
    <IATA>YSB</IATA>
    <ICAO>CYSB</ICAO>
    <LATITUDE>46.62500000</LATITUDE>
    <LONGITUDE>-80.79888900</LONGITUDE>
  </AIRPORT>
  <AIRPORT ID="133">
    <NAME>Sherbrooke</NAME>
    <IATA>YSC</IATA>
    <ICAO>CYSC</ICAO>
    <LATITUDE>45.43861100</LATITUDE>
    <LONGITUDE>-71.69138900</LONGITUDE>
  </AIRPORT>
  <AIRPORT ID="134">
    <NAME>Saint John</NAME>
    <IATA>YSJ</IATA>
    <ICAO>CYSJ</ICAO>
    <LATITUDE>45.31611100</LATITUDE>
    <LONGITUDE>-65.89027800</LONGITUDE>
  </AIRPORT>
  <AIRPORT ID="135">
    <NAME>Fort Smith</NAME>
    <IATA>YSM</IATA>
    <ICAO>CYSM</ICAO>
    <LATITUDE>60.02027800</LATITUDE>
    <LONGITUDE>-111.96194400</LONGITUDE>
  </AIRPORT>
  <AIRPORT ID="136">
    <NAME>Nanisivik</NAME>
    <IATA>YSR</IATA>
    <ICAO>CYSR</ICAO>
    <LATITUDE>72.98222200</LATITUDE>
    <LONGITUDE>-84.61361100</LONGITUDE>
  </AIRPORT>
  <AIRPORT ID="137">
    <NAME>Summerside</NAME>
    <IATA>YSU</IATA>
    <ICAO>CYSU</ICAO>
    <LATITUDE>46.44055600</LATITUDE>
    <LONGITUDE>-63.83361100</LONGITUDE>
  </AIRPORT>
  <AIRPORT ID="138">
    <NAME>Sachs Harbour</NAME>
    <IATA>YSY</IATA>
    <ICAO>CYSY</ICAO>
    <LATITUDE>71.99388900</LATITUDE>
    <LONGITUDE>-125.24250000</LONGITUDE>
  </AIRPORT>
  <AIRPORT ID="139">
    <NAME>Cape Dorset</NAME>
    <IATA>YTE</IATA>
    <ICAO>CYTE</ICAO>
    <LATITUDE>64.23000000</LATITUDE>
    <LONGITUDE>-76.52666700</LONGITUDE>
  </AIRPORT>
  <AIRPORT ID="140">
    <NAME>Thompson</NAME>
    <IATA>YTH</IATA>
    <ICAO>CYTH</ICAO>
    <LATITUDE>55.80111100</LATITUDE>
    <LONGITUDE>-97.86416600</LONGITUDE>
  </AIRPORT>
  <AIRPORT ID="141">
    <NAME>Trenton</NAME>
    <IATA>YTR</IATA>
    <ICAO>CYTR</ICAO>
    <LATITUDE>44.11888900</LATITUDE>
    <LONGITUDE>-77.52805600</LONGITUDE>
  </AIRPORT>
  <AIRPORT ID="142">
    <NAME>Timmins</NAME>
    <IATA>YTS</IATA>
    <ICAO>CYTS</ICAO>
    <LATITUDE>48.56972100</LATITUDE>
    <LONGITUDE>-81.37666700</LONGITUDE>
  </AIRPORT>
  <AIRPORT ID="143">
    <NAME>City Centre</NAME>
    <IATA>YTZ</IATA>
    <ICAO>CYTZ</ICAO>
    <LATITUDE>43.62749900</LATITUDE>
    <LONGITUDE>-79.39616700</LONGITUDE>
  </AIRPORT>
  <AIRPORT ID="144">
    <NAME>Tuktoyaktuk</NAME>
    <IATA>YUB</IATA>
    <ICAO>CYUB</ICAO>
    <LATITUDE>69.43333400</LATITUDE>
    <LONGITUDE>-133.02638900</LONGITUDE>
  </AIRPORT>
  <AIRPORT ID="145">
    <NAME>Pierre Elliott Trudeau Intl</NAME>
    <IATA>YUL</IATA>
    <ICAO>CYUL</ICAO>
    <LATITUDE>45.47055600</LATITUDE>
    <LONGITUDE>-73.74083300</LONGITUDE>
  </AIRPORT>
  <AIRPORT ID="146">
    <NAME>Repulse Bay</NAME>
    <IATA>YUT</IATA>
    <ICAO>CYUT</ICAO>
    <LATITUDE>66.52138900</LATITUDE>
    <LONGITUDE>-86.22472200</LONGITUDE>
  </AIRPORT>
  <AIRPORT ID="147">
    <NAME>Hall Beach</NAME>
    <IATA>YUX</IATA>
    <ICAO>CYUX</ICAO>
    <LATITUDE>68.77611100</LATITUDE>
    <LONGITUDE>-81.24361100</LONGITUDE>
  </AIRPORT>
  <AIRPORT ID="148">
    <NAME>Rouyn Noranda</NAME>
    <IATA>YUY</IATA>
    <ICAO>CYUY</ICAO>
    <LATITUDE>48.20611100</LATITUDE>
    <LONGITUDE>-78.83555600</LONGITUDE>
  </AIRPORT>
  <AIRPORT ID="149">
    <NAME>La Ronge</NAME>
    <IATA>YVC</IATA>
    <ICAO>CYVC</ICAO>
    <LATITUDE>55.15139000</LATITUDE>
    <LONGITUDE>-105.26194400</LONGITUDE>
  </AIRPORT>
  <AIRPORT ID="150">
    <NAME>Vermilion</NAME>
    <IATA>YVG</IATA>
    <ICAO>CYVG</ICAO>
    <LATITUDE>53.35583300</LATITUDE>
    <LONGITUDE>-110.82389000</LONGITUDE>
  </AIRPORT>
  <AIRPORT ID="151">
    <NAME>Qikiqtarjuaq</NAME>
    <IATA>YVM</IATA>
    <ICAO>CYVM</ICAO>
    <LATITUDE>67.54583300</LATITUDE>
    <LONGITUDE>-64.03138900</LONGITUDE>
  </AIRPORT>
  <AIRPORT ID="152">
    <NAME>Val D Or</NAME>
    <IATA>YVO</IATA>
    <ICAO>CYVO</ICAO>
    <LATITUDE>48.05333300</LATITUDE>
    <LONGITUDE>-77.78277800</LONGITUDE>
  </AIRPORT>
  <AIRPORT ID="153">
    <NAME>Kuujjuaq</NAME>
    <IATA>YVP</IATA>
    <ICAO>CYVP</ICAO>
    <LATITUDE>58.09611100</LATITUDE>
    <LONGITUDE>-68.42694400</LONGITUDE>
  </AIRPORT>
  <AIRPORT ID="154">
    <NAME>Norman Wells</NAME>
    <IATA>YVQ</IATA>
    <ICAO>CYVQ</ICAO>
    <LATITUDE>65.28161700</LATITUDE>
    <LONGITUDE>-126.79821900</LONGITUDE>
  </AIRPORT>
  <AIRPORT ID="155">
    <NAME>Vancouver Intl</NAME>
    <IATA>YVR</IATA>
    <ICAO>CYVR</ICAO>
    <LATITUDE>49.19388900</LATITUDE>
    <LONGITUDE>-123.18444400</LONGITUDE>
  </AIRPORT>
  <AIRPORT ID="156">
    <NAME>Buffalo Narrows</NAME>
    <IATA>YVT</IATA>
    <ICAO>CYVT</ICAO>
    <LATITUDE>55.84194400</LATITUDE>
    <LONGITUDE>-108.41750000</LONGITUDE>
  </AIRPORT>
  <AIRPORT ID="157">
    <NAME>Wiarton</NAME>
    <IATA>YVV</IATA>
    <ICAO>CYVV</ICAO>
    <LATITUDE>44.74583400</LATITUDE>
    <LONGITUDE>-81.10722200</LONGITUDE>
  </AIRPORT>
  <AIRPORT ID="158">
    <NAME>Petawawa</NAME>
    <IATA>YWA</IATA>
    <ICAO>CYWA</ICAO>
    <LATITUDE>45.95222100</LATITUDE>
    <LONGITUDE>-77.31916800</LONGITUDE>
  </AIRPORT>
  <AIRPORT ID="159">
    <NAME>Winnipeg Intl</NAME>
    <IATA>YWG</IATA>
    <ICAO>CYWG</ICAO>
    <LATITUDE>49.91003600</LATITUDE>
    <LONGITUDE>-97.23988600</LONGITUDE>
  </AIRPORT>
  <AIRPORT ID="160">
    <NAME>Wabush</NAME>
    <IATA>YWK</IATA>
    <ICAO>CYWK</ICAO>
    <LATITUDE>52.92194400</LATITUDE>
    <LONGITUDE>-66.86444400</LONGITUDE>
  </AIRPORT>
  <AIRPORT ID="161">
    <NAME>Williams Lake</NAME>
    <IATA>YWL</IATA>
    <ICAO>CYWL</ICAO>
    <LATITUDE>52.18305600</LATITUDE>
    <LONGITUDE>-122.05416700</LONGITUDE>
  </AIRPORT>
  <AIRPORT ID="162">
    <NAME>Wrigley</NAME>
    <IATA>YWY</IATA>
    <ICAO>CYWY</ICAO>
    <LATITUDE>63.20944400</LATITUDE>
    <LONGITUDE>-123.43666700</LONGITUDE>
  </AIRPORT>
  <AIRPORT ID="163">
    <NAME>Canadian Rockies Intl</NAME>
    <IATA>YXC</IATA>
    <ICAO>CYXC</ICAO>
    <LATITUDE>49.61222200</LATITUDE>
    <LONGITUDE>-115.78194400</LONGITUDE>
  </AIRPORT>
  <AIRPORT ID="164">
    <NAME>Edmonton City Centre</NAME>
    <IATA>YXD</IATA>
    <ICAO>CYXD</ICAO>
    <LATITUDE>53.57250000</LATITUDE>
    <LONGITUDE>-113.52055600</LONGITUDE>
  </AIRPORT>
  <AIRPORT ID="165">
    <NAME>Saskatoon J G Diefenbaker Intl</NAME>
    <IATA>YXE</IATA>
    <ICAO>CYXE</ICAO>
    <LATITUDE>52.17083400</LATITUDE>
    <LONGITUDE>-106.69972200</LONGITUDE>
  </AIRPORT>
  <AIRPORT ID="166">
    <NAME>Medicine Hat</NAME>
    <IATA>YXH</IATA>
    <ICAO>CYXH</ICAO>
    <LATITUDE>50.01889000</LATITUDE>
    <LONGITUDE>-110.72083300</LONGITUDE>
  </AIRPORT>
  <AIRPORT ID="167">
    <NAME>Fort St John</NAME>
    <IATA>YXJ</IATA>
    <ICAO>CYXJ</ICAO>
    <LATITUDE>56.23805600</LATITUDE>
    <LONGITUDE>-120.74027800</LONGITUDE>
  </AIRPORT>
  <AIRPORT ID="168">
    <NAME>Sioux Lookout</NAME>
    <IATA>YXL</IATA>
    <ICAO>CYXL</ICAO>
    <LATITUDE>50.11388900</LATITUDE>
    <LONGITUDE>-91.90527800</LONGITUDE>
  </AIRPORT>
  <AIRPORT ID="169">
    <NAME>Pangnirtung</NAME>
    <IATA>YXP</IATA>
    <ICAO>CYXP</ICAO>
    <LATITUDE>66.14500000</LATITUDE>
    <LONGITUDE>-65.71361100</LONGITUDE>
  </AIRPORT>
  <AIRPORT ID="170">
    <NAME>Timiskaming Rgnl</NAME>
    <IATA>YXR</IATA>
    <ICAO>CYXR</ICAO>
    <LATITUDE>47.69500000</LATITUDE>
    <LONGITUDE>-79.84888900</LONGITUDE>
  </AIRPORT>
  <AIRPORT ID="171">
    <NAME>Prince George</NAME>
    <IATA>YXS</IATA>
    <ICAO>CYXS</ICAO>
    <LATITUDE>53.88944400</LATITUDE>
    <LONGITUDE>-122.67888900</LONGITUDE>
  </AIRPORT>
  <AIRPORT ID="172">
    <NAME>Terrace</NAME>
    <IATA>YXT</IATA>
    <ICAO>CYXT</ICAO>
    <LATITUDE>54.46850800</LATITUDE>
    <LONGITUDE>-128.57621900</LONGITUDE>
  </AIRPORT>
  <AIRPORT ID="173">
    <NAME>London</NAME>
    <IATA>YXU</IATA>
    <ICAO>CYXU</ICAO>
    <LATITUDE>43.03305600</LATITUDE>
    <LONGITUDE>-81.15111100</LONGITUDE>
  </AIRPORT>
  <AIRPORT ID="174">
    <NAME>Abbotsford</NAME>
    <IATA>YXX</IATA>
    <ICAO>CYXX</ICAO>
    <LATITUDE>49.02527800</LATITUDE>
    <LONGITUDE>-122.36055600</LONGITUDE>
  </AIRPORT>
  <AIRPORT ID="175">
    <NAME>Whitehorse Intl</NAME>
    <IATA>YXY</IATA>
    <ICAO>CYXY</ICAO>
    <LATITUDE>60.70955300</LATITUDE>
    <LONGITUDE>-135.06726900</LONGITUDE>
  </AIRPORT>
  <AIRPORT ID="176">
    <NAME>North Bay</NAME>
    <IATA>YYB</IATA>
    <ICAO>CYYB</ICAO>
    <LATITUDE>46.36361100</LATITUDE>
    <LONGITUDE>-79.42277800</LONGITUDE>
  </AIRPORT>
  <AIRPORT ID="177">
    <NAME>Calgary Intl</NAME>
    <IATA>YYC</IATA>
    <ICAO>CYYC</ICAO>
    <LATITUDE>51.11388800</LATITUDE>
    <LONGITUDE>-114.02027800</LONGITUDE>
  </AIRPORT>
  <AIRPORT ID="178">
    <NAME>Smithers</NAME>
    <IATA>YYD</IATA>
    <ICAO>CYYD</ICAO>
    <LATITUDE>54.82472200</LATITUDE>
    <LONGITUDE>-127.18277800</LONGITUDE>
  </AIRPORT>
  <AIRPORT ID="179">
    <NAME>Fort Nelson</NAME>
    <IATA>YYE</IATA>
    <ICAO>CYYE</ICAO>
    <LATITUDE>58.83638900</LATITUDE>
    <LONGITUDE>-122.59694400</LONGITUDE>
  </AIRPORT>
  <AIRPORT ID="180">
    <NAME>Penticton</NAME>
    <IATA>YYF</IATA>
    <ICAO>CYYF</ICAO>
    <LATITUDE>49.46305600</LATITUDE>
    <LONGITUDE>-119.60222200</LONGITUDE>
  </AIRPORT>
  <AIRPORT ID="181">
    <NAME>Charlottetown</NAME>
    <IATA>YYG</IATA>
    <ICAO>CYYG</ICAO>
    <LATITUDE>46.29000100</LATITUDE>
    <LONGITUDE>-63.12111100</LONGITUDE>
  </AIRPORT>
  <AIRPORT ID="182">
    <NAME>Taloyoak</NAME>
    <IATA>YYH</IATA>
    <ICAO>CYYH</ICAO>
    <LATITUDE>69.54666700</LATITUDE>
    <LONGITUDE>-93.57666700</LONGITUDE>
  </AIRPORT>
  <AIRPORT ID="183">
    <NAME>Victoria Intl</NAME>
    <IATA>YYJ</IATA>
    <ICAO>CYYJ</ICAO>
    <LATITUDE>48.64694400</LATITUDE>
    <LONGITUDE>-123.42583300</LONGITUDE>
  </AIRPORT>
  <AIRPORT ID="184">
    <NAME>Lynn Lake</NAME>
    <IATA>YYL</IATA>
    <ICAO>CYYL</ICAO>
    <LATITUDE>56.86388800</LATITUDE>
    <LONGITUDE>-101.07611000</LONGITUDE>
  </AIRPORT>
  <AIRPORT ID="185">
    <NAME>Swift Current</NAME>
    <IATA>YYN</IATA>
    <ICAO>CYYN</ICAO>
    <LATITUDE>50.29194400</LATITUDE>
    <LONGITUDE>-107.69055600</LONGITUDE>
  </AIRPORT>
  <AIRPORT ID="186">
    <NAME>Churchill</NAME>
    <IATA>YYQ</IATA>
    <ICAO>CYYQ</ICAO>
    <LATITUDE>58.73916700</LATITUDE>
    <LONGITUDE>-94.06500000</LONGITUDE>
  </AIRPORT>
  <AIRPORT ID="187">
    <NAME>Goose Bay</NAME>
    <IATA>YYR</IATA>
    <ICAO>CYYR</ICAO>
    <LATITUDE>53.31916800</LATITUDE>
    <LONGITUDE>-60.42583300</LONGITUDE>
  </AIRPORT>
  <AIRPORT ID="188">
    <NAME>St Johns Intl</NAME>
    <IATA>YYT</IATA>
    <ICAO>CYYT</ICAO>
    <LATITUDE>47.61861000</LATITUDE>
    <LONGITUDE>-52.75194500</LONGITUDE>
  </AIRPORT>
  <AIRPORT ID="189">
    <NAME>Kapuskasing</NAME>
    <IATA>YYU</IATA>
    <ICAO>CYYU</ICAO>
    <LATITUDE>49.41388900</LATITUDE>
    <LONGITUDE>-82.46750000</LONGITUDE>
  </AIRPORT>
  <AIRPORT ID="190">
    <NAME>Armstrong</NAME>
    <IATA>YYW</IATA>
    <ICAO>CYYW</ICAO>
    <LATITUDE>50.29027900</LATITUDE>
    <LONGITUDE>-88.90972100</LONGITUDE>
  </AIRPORT>
  <AIRPORT ID="191">
    <NAME>Mont Joli</NAME>
    <IATA>YYY</IATA>
    <ICAO>CYYY</ICAO>
    <LATITUDE>48.60861200</LATITUDE>
    <LONGITUDE>-68.20805600</LONGITUDE>
  </AIRPORT>
  <AIRPORT ID="192">
    <NAME>Lester B Pearson Intl</NAME>
    <IATA>YYZ</IATA>
    <ICAO>CYYZ</ICAO>
    <LATITUDE>43.67722300</LATITUDE>
    <LONGITUDE>-79.63055600</LONGITUDE>
  </AIRPORT>
  <AIRPORT ID="193">
    <NAME>Downsview</NAME>
    <IATA>YZD</IATA>
    <ICAO>CYZD</ICAO>
    <LATITUDE>43.74250000</LATITUDE>
    <LONGITUDE>-79.46555600</LONGITUDE>
  </AIRPORT>
  <AIRPORT ID="194">
    <NAME>Gore Bay Manitoulin</NAME>
    <IATA>YZE</IATA>
    <ICAO>CYZE</ICAO>
    <LATITUDE>45.88527700</LATITUDE>
    <LONGITUDE>-82.56777800</LONGITUDE>
  </AIRPORT>
  <AIRPORT ID="195">
    <NAME>Yellowknife</NAME>
    <IATA>YZF</IATA>
    <ICAO>CYZF</ICAO>
    <LATITUDE>62.46277800</LATITUDE>
    <LONGITUDE>-114.44027800</LONGITUDE>
  </AIRPORT>
  <AIRPORT ID="196">
    <NAME>Slave Lake</NAME>
    <IATA>YZH</IATA>
    <ICAO>CYZH</ICAO>
    <LATITUDE>55.29305600</LATITUDE>
    <LONGITUDE>-114.77722200</LONGITUDE>
  </AIRPORT>
  <AIRPORT ID="197">
    <NAME>Sandspit</NAME>
    <IATA>YZP</IATA>
    <ICAO>CYZP</ICAO>
    <LATITUDE>53.25433300</LATITUDE>
    <LONGITUDE>-131.81383300</LONGITUDE>
  </AIRPORT>
  <AIRPORT ID="198">
    <NAME>Chris Hadfield</NAME>
    <IATA>YZR</IATA>
    <ICAO>CYZR</ICAO>
    <LATITUDE>42.99944400</LATITUDE>
    <LONGITUDE>-82.30888900</LONGITUDE>
  </AIRPORT>
  <AIRPORT ID="199">
    <NAME>Port Hardy</NAME>
    <IATA>YZT</IATA>
    <ICAO>CYZT</ICAO>
    <LATITUDE>50.68055600</LATITUDE>
    <LONGITUDE>-127.36666700</LONGITUDE>
  </AIRPORT>
  <AIRPORT ID="200">
    <NAME>Whitecourt</NAME>
    <IATA>YZU</IATA>
    <ICAO>CYZU</ICAO>
    <LATITUDE>54.14389000</LATITUDE>
    <LONGITUDE>-115.78666700</LONGITUDE>
  </AIRPORT>
  <AIRPORT ID="201">
    <NAME>Sept Iles</NAME>
    <IATA>YZV</IATA>
    <ICAO>CYZV</ICAO>
    <LATITUDE>50.22333300</LATITUDE>
    <LONGITUDE>-66.26555600</LONGITUDE>
  </AIRPORT>
  <AIRPORT ID="202">
    <NAME>Teslin</NAME>
    <IATA>YZW</IATA>
    <ICAO>CYZW</ICAO>
    <LATITUDE>60.17277900</LATITUDE>
    <LONGITUDE>-132.74277800</LONGITUDE>
  </AIRPORT>
  <AIRPORT ID="203">
    <NAME>Greenwood</NAME>
    <IATA>YZX</IATA>
    <ICAO>CYZX</ICAO>
    <LATITUDE>44.98444400</LATITUDE>
    <LONGITUDE>-64.91694400</LONGITUDE>
  </AIRPORT>
  <AIRPORT ID="204">
    <NAME>Faro</NAME>
    <IATA>ZFA</IATA>
    <ICAO>CZFA</ICAO>
    <LATITUDE>62.20750000</LATITUDE>
    <LONGITUDE>-133.37583300</LONGITUDE>
  </AIRPORT>
  <AIRPORT ID="205">
    <NAME>Fort Mcpherson</NAME>
    <IATA>ZFM</IATA>
    <ICAO>CZFM</ICAO>
    <LATITUDE>67.40750000</LATITUDE>
    <LONGITUDE>-134.86055600</LONGITUDE>
  </AIRPORT>
  <AIRPORT ID="206">
    <NAME>Blida</NAME>
    <IATA>
    </IATA>
    <ICAO>DAAB</ICAO>
    <LATITUDE>36.50361300</LATITUDE>
    <LONGITUDE>2.81416700</LONGITUDE>
  </AIRPORT>
  <AIRPORT ID="207">
    <NAME>Bou Saada</NAME>
    <IATA>
    </IATA>
    <ICAO>DAAD</ICAO>
    <LATITUDE>35.33250000</LATITUDE>
    <LONGITUDE>4.20638900</LONGITUDE>
  </AIRPORT>
  <AIRPORT ID="208">
    <NAME>Soummam</NAME>
    <IATA>BJA</IATA>
    <ICAO>DAAE</ICAO>
    <LATITUDE>36.71199700</LATITUDE>
    <LONGITUDE>5.06992200</LONGITUDE>
  </AIRPORT>
  <AIRPORT ID="209">
    <NAME>Houari Boumediene</NAME>
    <IATA>ALG</IATA>
    <ICAO>DAAG</ICAO>
    <LATITUDE>36.69101400</LATITUDE>
    <LONGITUDE>3.21540800</LONGITUDE>
  </AIRPORT>
  <AIRPORT ID="210">
    <NAME>Tiska</NAME>
    <IATA>DJG</IATA>
    <ICAO>DAAJ</ICAO>
    <LATITUDE>24.29276700</LATITUDE>
    <LONGITUDE>9.45244400</LONGITUDE>
  </AIRPORT>
  <AIRPORT ID="211">
    <NAME>Boufarik</NAME>
    <IATA>
    </IATA>
    <ICAO>DAAK</ICAO>
    <LATITUDE>36.54583400</LATITUDE>
    <LONGITUDE>2.87611100</LONGITUDE>
  </AIRPORT>
  <AIRPORT ID="212">
    <NAME>Reggane</NAME>
    <IATA>
    </IATA>
    <ICAO>DAAN</ICAO>
    <LATITUDE>26.71010300</LATITUDE>
    <LONGITUDE>0.28564700</LONGITUDE>
  </AIRPORT>
  <AIRPORT ID="213">
    <NAME>Illizi Takhamalt</NAME>
    <IATA>VVZ</IATA>
    <ICAO>DAAP</ICAO>
    <LATITUDE>26.72353600</LATITUDE>
    <LONGITUDE>8.62265300</LONGITUDE>
  </AIRPORT>
  <AIRPORT ID="214">
    <NAME>Ain Oussera</NAME>
    <IATA>
    </IATA>
    <ICAO>DAAQ</ICAO>
    <LATITUDE>35.52541400</LATITUDE>
    <LONGITUDE>2.87871400</LONGITUDE>
  </AIRPORT>
  <AIRPORT ID="215">
    <NAME>Tamanrasset</NAME>
    <IATA>TMR</IATA>
    <ICAO>DAAT</ICAO>
    <LATITUDE>22.81146100</LATITUDE>
    <LONGITUDE>5.45107500</LONGITUDE>
  </AIRPORT>
  <AIRPORT ID="216">
    <NAME>Jijel</NAME>
    <IATA>GJL</IATA>
    <ICAO>DAAV</ICAO>
    <LATITUDE>36.79513600</LATITUDE>
    <LONGITUDE>5.87360800</LONGITUDE>
  </AIRPORT>
  <AIRPORT ID="217">
    <NAME>Mecheria</NAME>
    <IATA>
    </IATA>
    <ICAO>DAAY</ICAO>
    <LATITUDE>33.53585300</LATITUDE>
    <LONGITUDE>-0.24235300</LONGITUDE>
  </AIRPORT>
  <AIRPORT ID="218">
    <NAME>Relizane</NAME>
    <IATA>
    </IATA>
    <ICAO>DAAZ</ICAO>
    <LATITUDE>35.75223900</LATITUDE>
    <LONGITUDE>0.62627200</LONGITUDE>
  </AIRPORT>
  <AIRPORT ID="219">
    <NAME>Annaba</NAME>
    <IATA>AAE</IATA>
    <ICAO>DABB</ICAO>
    <LATITUDE>36.82222500</LATITUDE>
    <LONGITUDE>7.80916700</LONGITUDE>
  </AIRPORT>
  <AIRPORT ID="220">
    <NAME>Mohamed Boudiaf Intl</NAME>
    <IATA>CZL</IATA>
    <ICAO>DABC</ICAO>
    <LATITUDE>36.27602800</LATITUDE>
    <LONGITUDE>6.62038600</LONGITUDE>
  </AIRPORT>
  <AIRPORT ID="221">
    <NAME>Cheikh Larbi Tebessi</NAME>
    <IATA>TEE</IATA>
    <ICAO>DABS</ICAO>
    <LATITUDE>35.43161100</LATITUDE>
    <LONGITUDE>8.12071700</LONGITUDE>
  </AIRPORT>
  <AIRPORT ID="222">
    <NAME>Hassi R Mel</NAME>
    <IATA>HRM</IATA>
    <ICAO>DAFH</ICAO>
    <LATITUDE>32.93043100</LATITUDE>
    <LONGITUDE>3.31154200</LONGITUDE>
  </AIRPORT>
  <AIRPORT ID="223">
    <NAME>Bou Chekif</NAME>
    <IATA>TID</IATA>
    <ICAO>DAOB</ICAO>
    <LATITUDE>35.34113600</LATITUDE>
    <LONGITUDE>1.46314700</LONGITUDE>
  </AIRPORT>
  <AIRPORT ID="224">
    <NAME>Bou Sfer</NAME>
    <IATA>
    </IATA>
    <ICAO>DAOE</ICAO>
    <LATITUDE>35.73538900</LATITUDE>
    <LONGITUDE>-0.80538900</LONGITUDE>
  </AIRPORT>
  <AIRPORT ID="225">
    <NAME>Tindouf</NAME>
    <IATA>TIN</IATA>
    <ICAO>DAOF</ICAO>
    <LATITUDE>27.70037200</LATITUDE>
    <LONGITUDE>-8.16710300</LONGITUDE>
  </AIRPORT>
  <AIRPORT ID="226">
    <NAME>Ech Cheliff</NAME>
    <IATA>QAS</IATA>
    <ICAO>DAOI</ICAO>
    <LATITUDE>36.21265800</LATITUDE>
    <LONGITUDE>1.33177500</LONGITUDE>
  </AIRPORT>
  <AIRPORT ID="227">
    <NAME>Tafaraoui</NAME>
    <IATA>TAF</IATA>
    <ICAO>DAOL</ICAO>
    <LATITUDE>35.54244400</LATITUDE>
    <LONGITUDE>-0.53227800</LONGITUDE>
  </AIRPORT>
  <AIRPORT ID="228">
    <NAME>Zenata</NAME>
    <IATA>TLM</IATA>
    <ICAO>DAON</ICAO>
    <LATITUDE>35.01666700</LATITUDE>
    <LONGITUDE>-1.45000000</LONGITUDE>
  </AIRPORT>
  <AIRPORT ID="229">
    <NAME>Es Senia</NAME>
    <IATA>ORN</IATA>
    <ICAO>DAOO</ICAO>
    <LATITUDE>35.62385800</LATITUDE>
    <LONGITUDE>-0.62118300</LONGITUDE>
  </AIRPORT>
  <AIRPORT ID="230">
    <NAME>Sidi Bel Abbes</NAME>
    <IATA>
    </IATA>
    <ICAO>DAOS</ICAO>
    <LATITUDE>35.17177500</LATITUDE>
    <LONGITUDE>-0.59327500</LONGITUDE>
  </AIRPORT>
  <AIRPORT ID="231">
    <NAME>Ghriss</NAME>
    <IATA>MUW</IATA>
    <ICAO>DAOV</ICAO>
    <LATITUDE>35.20772500</LATITUDE>
    <LONGITUDE>0.14714200</LONGITUDE>
  </AIRPORT>
  <AIRPORT ID="232">
    <NAME>Touat Cheikh Sidi Mohamed Belkebir</NAME>
    <IATA>AZR</IATA>
    <ICAO>DAUA</ICAO>
    <LATITUDE>27.83758900</LATITUDE>
    <LONGITUDE>-0.18641400</LONGITUDE>
  </AIRPORT>
  <AIRPORT ID="233">
    <NAME>Biskra</NAME>
    <IATA>BSK</IATA>
    <ICAO>DAUB</ICAO>
    <LATITUDE>34.79328900</LATITUDE>
    <LONGITUDE>5.73823100</LONGITUDE>
  </AIRPORT>
  <AIRPORT ID="234">
    <NAME>El Golea</NAME>
    <IATA>ELG</IATA>
    <ICAO>DAUE</ICAO>
    <LATITUDE>30.57129400</LATITUDE>
    <LONGITUDE>2.85958600</LONGITUDE>
  </AIRPORT>
  <AIRPORT ID="235">
    <NAME>Noumerat</NAME>
    <IATA>GHA</IATA>
    <ICAO>DAUG</ICAO>
    <LATITUDE>32.38410600</LATITUDE>
    <LONGITUDE>3.79411400</LONGITUDE>
  </AIRPORT>
  <AIRPORT ID="236">
    <NAME>Oued Irara</NAME>
    <IATA>HME</IATA>
    <ICAO>DAUH</ICAO>
    <LATITUDE>31.67297200</LATITUDE>
    <LONGITUDE>6.14044400</LONGITUDE>
  </AIRPORT>
  <AIRPORT ID="237">
    <NAME>In Salah</NAME>
    <IATA>INZ</IATA>
    <ICAO>DAUI</ICAO>
    <LATITUDE>27.25102200</LATITUDE>
    <LONGITUDE>2.51201700</LONGITUDE>
  </AIRPORT>
  <AIRPORT ID="238">
    <NAME>Sidi Mahdi</NAME>
    <IATA>TGR</IATA>
    <ICAO>DAUK</ICAO>
    <LATITUDE>33.06780300</LATITUDE>
    <LONGITUDE>6.08867200</LONGITUDE>
  </AIRPORT>
  <AIRPORT ID="239">
    <NAME>Laghouat</NAME>
    <IATA>LOO</IATA>
    <ICAO>DAUL</ICAO>
    <LATITUDE>33.76438300</LATITUDE>
    <LONGITUDE>2.92834400</LONGITUDE>
  </AIRPORT>
  <AIRPORT ID="240">
    <NAME>Timimoun</NAME>
    <IATA>TMX</IATA>
    <ICAO>DAUT</ICAO>
    <LATITUDE>29.23711900</LATITUDE>
    <LONGITUDE>0.27603300</LONGITUDE>
  </AIRPORT>
  <AIRPORT ID="241">
    <NAME>Ouargla</NAME>
    <IATA>OGX</IATA>
    <ICAO>DAUU</ICAO>
    <LATITUDE>31.91722300</LATITUDE>
    <LONGITUDE>5.41277800</LONGITUDE>
  </AIRPORT>
  <AIRPORT ID="242">
    <NAME>In Amenas</NAME>
    <IATA>IAM</IATA>
    <ICAO>DAUZ</ICAO>
    <LATITUDE>28.05155000</LATITUDE>
    <LONGITUDE>9.64291100</LONGITUDE>
  </AIRPORT>
  <AIRPORT ID="243">
    <NAME>Cadjehoun</NAME>
    <IATA>COO</IATA>
    <ICAO>DBBB</ICAO>
    <LATITUDE>6.35722800</LATITUDE>
    <LONGITUDE>2.38435300</LONGITUDE>
  </AIRPORT>
  <AIRPORT ID="244">
    <NAME>Ouagadougou</NAME>
    <IATA>OUA</IATA>
    <ICAO>DFFD</ICAO>
    <LATITUDE>12.35319400</LATITUDE>
    <LONGITUDE>-1.51241700</LONGITUDE>
  </AIRPORT>
  <AIRPORT ID="245">
    <NAME>Bobo Dioulasso</NAME>
    <IATA>BOY</IATA>
    <ICAO>DFOO</ICAO>
    <LATITUDE>11.16005600</LATITUDE>
    <LONGITUDE>-4.33096900</LONGITUDE>
  </AIRPORT>
  <AIRPORT ID="246">
    <NAME>Kotoka Intl</NAME>
    <IATA>ACC</IATA>
    <ICAO>DGAA</ICAO>
    <LATITUDE>5.60518600</LATITUDE>
    <LONGITUDE>-0.16678600</LONGITUDE>
  </AIRPORT>
  <AIRPORT ID="247">
    <NAME>Tamale</NAME>
    <IATA>TML</IATA>
    <ICAO>DGLE</ICAO>
    <LATITUDE>9.55719200</LATITUDE>
    <LONGITUDE>-0.86321400</LONGITUDE>
  </AIRPORT>
  <AIRPORT ID="248">
    <NAME>Wa</NAME>
    <IATA>
    </IATA>
    <ICAO>DGLW</ICAO>
    <LATITUDE>10.08266400</LATITUDE>
    <LONGITUDE>-2.50769400</LONGITUDE>
  </AIRPORT>
  <AIRPORT ID="249">
    <NAME>Sunyani</NAME>
    <IATA>NYI</IATA>
    <ICAO>DGSN</ICAO>
    <LATITUDE>7.36182800</LATITUDE>
    <LONGITUDE>-2.32875600</LONGITUDE>
  </AIRPORT>
  <AIRPORT ID="250">
    <NAME>Takoradi</NAME>
    <IATA>TKD</IATA>
    <ICAO>DGTK</ICAO>
    <LATITUDE>4.89605600</LATITUDE>
    <LONGITUDE>-1.77475600</LONGITUDE>
  </AIRPORT>
  <AIRPORT ID="251">
    <NAME>Abidjan Felix Houphouet Boigny Intl</NAME>
    <IATA>ABJ</IATA>
    <ICAO>DIAP</ICAO>
    <LATITUDE>5.26138600</LATITUDE>
    <LONGITUDE>-3.92629400</LONGITUDE>
  </AIRPORT>
  <AIRPORT ID="252">
    <NAME>Bouake</NAME>
    <IATA>BYK</IATA>
    <ICAO>DIBK</ICAO>
    <LATITUDE>7.73880000</LATITUDE>
    <LONGITUDE>-5.07366700</LONGITUDE>
  </AIRPORT>
  <AIRPORT ID="253">
    <NAME>Daloa</NAME>
    <IATA>DJO</IATA>
    <ICAO>DIDL</ICAO>
    <LATITUDE>6.79280800</LATITUDE>
    <LONGITUDE>-6.47318900</LONGITUDE>
  </AIRPORT>
  <AIRPORT ID="254">
    <NAME>Korhogo</NAME>
    <IATA>HGO</IATA>
    <ICAO>DIKO</ICAO>
    <LATITUDE>9.38718300</LATITUDE>
    <LONGITUDE>-5.55666400</LONGITUDE>
  </AIRPORT>
  <AIRPORT ID="255">
    <NAME>Man</NAME>
    <IATA>MJC</IATA>
    <ICAO>DIMN</ICAO>
    <LATITUDE>7.27206900</LATITUDE>
    <LONGITUDE>-7.58736400</LONGITUDE>
  </AIRPORT>
  <AIRPORT ID="256">
    <NAME>San Pedro</NAME>
    <IATA>SPY</IATA>
    <ICAO>DISP</ICAO>
    <LATITUDE>4.74671700</LATITUDE>
    <LONGITUDE>-6.66081700</LONGITUDE>
  </AIRPORT>
  <AIRPORT ID="257">
    <NAME>Yamoussoukro</NAME>
    <IATA>ASK</IATA>
    <ICAO>DIYO</ICAO>
    <LATITUDE>6.90316700</LATITUDE>
    <LONGITUDE>-5.36558100</LONGITUDE>
  </AIRPORT>
  <AIRPORT ID="258">
    <NAME>Nnamdi Azikiwe Intl</NAME>
    <IATA>ABV</IATA>
    <ICAO>DNAA</ICAO>
    <LATITUDE>9.00679200</LATITUDE>
    <LONGITUDE>7.26317200</LONGITUDE>
  </AIRPORT>
  <AIRPORT ID="259">
    <NAME>Akure</NAME>
    <IATA>AKR</IATA>
    <ICAO>DNAK</ICAO>
    <LATITUDE>7.24673900</LATITUDE>
    <LONGITUDE>5.30100800</LONGITUDE>
  </AIRPORT>
  <AIRPORT ID="260">
    <NAME>Benin</NAME>
    <IATA>BNI</IATA>
    <ICAO>DNBE</ICAO>
    <LATITUDE>6.31698100</LATITUDE>
    <LONGITUDE>5.59950300</LONGITUDE>
  </AIRPORT>
  <AIRPORT ID="261">
    <NAME>Calabar</NAME>
    <IATA>CBQ</IATA>
    <ICAO>DNCA</ICAO>
    <LATITUDE>4.97601900</LATITUDE>
    <LONGITUDE>8.34719700</LONGITUDE>
  </AIRPORT>
  <AIRPORT ID="262">
    <NAME>Enugu</NAME>
    <IATA>ENU</IATA>
    <ICAO>DNEN</ICAO>
    <LATITUDE>6.47427200</LATITUDE>
    <LONGITUDE>7.56196100</LONGITUDE>
  </AIRPORT>
  <AIRPORT ID="263">
    <NAME>Gusau</NAME>
    <IATA>QUS</IATA>
    <ICAO>DNGU</ICAO>
    <LATITUDE>12.17166700</LATITUDE>
    <LONGITUDE>6.69611100</LONGITUDE>
  </AIRPORT>
  <AIRPORT ID="264">
    <NAME>Ibadan</NAME>
    <IATA>IBA</IATA>
    <ICAO>DNIB</ICAO>
    <LATITUDE>7.36245800</LATITUDE>
    <LONGITUDE>3.97833300</LONGITUDE>
  </AIRPORT>
  <AIRPORT ID="265">
    <NAME>Ilorin</NAME>
    <IATA>ILR</IATA>
    <ICAO>DNIL</ICAO>
    <LATITUDE>8.44021100</LATITUDE>
    <LONGITUDE>4.49391900</LONGITUDE>
  </AIRPORT>
  <AIRPORT ID="266">
    <NAME>Yakubu Gowon</NAME>
    <IATA>JOS</IATA>
    <ICAO>DNJO</ICAO>
    <LATITUDE>9.63982800</LATITUDE>
    <LONGITUDE>8.86905000</LONGITUDE>
  </AIRPORT>
  <AIRPORT ID="267">
    <NAME>Kaduna</NAME>
    <IATA>KAD</IATA>
    <ICAO>DNKA</ICAO>
    <LATITUDE>10.69602500</LATITUDE>
    <LONGITUDE>7.32011400</LONGITUDE>
  </AIRPORT>
  <AIRPORT ID="268">
    <NAME>Mallam Aminu Intl</NAME>
    <IATA>KAN</IATA>
    <ICAO>DNKN</ICAO>
    <LATITUDE>12.04758900</LATITUDE>
    <LONGITUDE>8.52462200</LONGITUDE>
  </AIRPORT>
  <AIRPORT ID="269">
    <NAME>Maiduguri</NAME>
    <IATA>MIU</IATA>
    <ICAO>DNMA</ICAO>
    <LATITUDE>11.85534700</LATITUDE>
    <LONGITUDE>13.08095000</LONGITUDE>
  </AIRPORT>
  <AIRPORT ID="270">
    <NAME>Makurdi</NAME>
    <IATA>MDI</IATA>
    <ICAO>DNMK</ICAO>
    <LATITUDE>7.70388300</LATITUDE>
    <LONGITUDE>8.61393900</LONGITUDE>
  </AIRPORT>
  <AIRPORT ID="271">
    <NAME>Murtala Muhammed</NAME>
    <IATA>LOS</IATA>
    <ICAO>DNMM</ICAO>
    <LATITUDE>6.57736900</LATITUDE>
    <LONGITUDE>3.32115600</LONGITUDE>
  </AIRPORT>
  <AIRPORT ID="272">
    <NAME>Minna New</NAME>
    <IATA>MXJ</IATA>
    <ICAO>DNMN</ICAO>
    <LATITUDE>9.65217200</LATITUDE>
    <LONGITUDE>6.46225600</LONGITUDE>
  </AIRPORT>
  <AIRPORT ID="273">
    <NAME>Port Harcourt Intl</NAME>
    <IATA>PHC</IATA>
    <ICAO>DNPO</ICAO>
    <LATITUDE>5.01549400</LATITUDE>
    <LONGITUDE>6.94959400</LONGITUDE>
  </AIRPORT>
  <AIRPORT ID="274">
    <NAME>Sadiq Abubakar Iii Intl</NAME>
    <IATA>SKO</IATA>
    <ICAO>DNSO</ICAO>
    <LATITUDE>12.91632200</LATITUDE>
    <LONGITUDE>5.20718900</LONGITUDE>
  </AIRPORT>
  <AIRPORT ID="275">
    <NAME>Yola</NAME>
    <IATA>YOL</IATA>
    <ICAO>DNYO</ICAO>
    <LATITUDE>9.25755300</LATITUDE>
    <LONGITUDE>12.43042200</LONGITUDE>
  </AIRPORT>
  <AIRPORT ID="276">
    <NAME>Zaria</NAME>
    <IATA>ZAR</IATA>
    <ICAO>DNZA</ICAO>
    <LATITUDE>11.13019200</LATITUDE>
    <LONGITUDE>7.68580600</LONGITUDE>
  </AIRPORT>
  <AIRPORT ID="277">
    <NAME>Maradi</NAME>
    <IATA>MFQ</IATA>
    <ICAO>DRRM</ICAO>
    <LATITUDE>13.50253100</LATITUDE>
    <LONGITUDE>7.12675300</LONGITUDE>
  </AIRPORT>
  <AIRPORT ID="278">
    <NAME>Diori Hamani</NAME>
    <IATA>NIM</IATA>
    <ICAO>DRRN</ICAO>
    <LATITUDE>13.48154700</LATITUDE>
    <LONGITUDE>2.18361400</LONGITUDE>
  </AIRPORT>
  <AIRPORT ID="279">
    <NAME>Tahoua</NAME>
    <IATA>THZ</IATA>
    <ICAO>DRRT</ICAO>
    <LATITUDE>14.87565800</LATITUDE>
    <LONGITUDE>5.26535800</LONGITUDE>
  </AIRPORT>
  <AIRPORT ID="280">
    <NAME>Manu Dayak</NAME>
    <IATA>AJY</IATA>
    <ICAO>DRZA</ICAO>
    <LATITUDE>16.96599700</LATITUDE>
    <LONGITUDE>8.00011400</LONGITUDE>
  </AIRPORT>
  <AIRPORT ID="281">
    <NAME>Dirkou</NAME>
    <IATA>
    </IATA>
    <ICAO>DRZD</ICAO>
    <LATITUDE>18.96870300</LATITUDE>
    <LONGITUDE>12.86865000</LONGITUDE>
  </AIRPORT>
  <AIRPORT ID="282">
    <NAME>Diffa</NAME>
    <IATA>
    </IATA>
    <ICAO>DRZF</ICAO>
    <LATITUDE>13.37289400</LATITUDE>
    <LONGITUDE>12.62668600</LONGITUDE>
  </AIRPORT>
  <AIRPORT ID="283">
    <NAME>Zinder</NAME>
    <IATA>ZND</IATA>
    <ICAO>DRZR</ICAO>
    <LATITUDE>13.77899700</LATITUDE>
    <LONGITUDE>8.98376100</LONGITUDE>
  </AIRPORT>
  <AIRPORT ID="284">
    <NAME>Habib Bourguiba Intl</NAME>
    <IATA>MIR</IATA>
    <ICAO>DTMB</ICAO>
    <LATITUDE>35.75805600</LATITUDE>
    <LONGITUDE>10.75472200</LONGITUDE>
  </AIRPORT>
  <AIRPORT ID="285">
    <NAME>Carthage</NAME>
    <IATA>TUN</IATA>
    <ICAO>DTTA</ICAO>
    <LATITUDE>36.85103300</LATITUDE>
    <LONGITUDE>10.22721700</LONGITUDE>
  </AIRPORT>
  <AIRPORT ID="286">
    <NAME>Sidi Ahmed Air Base</NAME>
    <IATA>
    </IATA>
    <ICAO>DTTB</ICAO>
    <LATITUDE>37.24544700</LATITUDE>
    <LONGITUDE>9.79145300</LONGITUDE>
  </AIRPORT>
  <AIRPORT ID="287">
    <NAME>Remada</NAME>
    <IATA>
    </IATA>
    <ICAO>DTTD</ICAO>
    <LATITUDE>32.30615600</LATITUDE>
    <LONGITUDE>10.38210800</LONGITUDE>
  </AIRPORT>
  <AIRPORT ID="288">
    <NAME>Gafsa</NAME>
    <IATA>GAF</IATA>
    <ICAO>DTTF</ICAO>
    <LATITUDE>34.42202200</LATITUDE>
    <LONGITUDE>8.82250300</LONGITUDE>
  </AIRPORT>
  <AIRPORT ID="289">
    <NAME>Gabes</NAME>
    <IATA>GAE</IATA>
    <ICAO>DTTG</ICAO>
    <LATITUDE>33.87691900</LATITUDE>
    <LONGITUDE>10.10333300</LONGITUDE>
  </AIRPORT>
  <AIRPORT ID="290">
    <NAME>Borj El Amri</NAME>
    <IATA>
    </IATA>
    <ICAO>DTTI</ICAO>
    <LATITUDE>36.72133900</LATITUDE>
    <LONGITUDE>9.94314700</LONGITUDE>
  </AIRPORT>
  <AIRPORT ID="291">
    <NAME>Zarzis</NAME>
    <IATA>DJE</IATA>
    <ICAO>DTTJ</ICAO>
    <LATITUDE>33.87503100</LATITUDE>
    <LONGITUDE>10.77546100</LONGITUDE>
  </AIRPORT>
  <AIRPORT ID="292">
    <NAME>El Borma</NAME>
    <IATA>EBM</IATA>
    <ICAO>DTTR</ICAO>
    <LATITUDE>31.70428100</LATITUDE>
    <LONGITUDE>9.25461900</LONGITUDE>
  </AIRPORT>
  <AIRPORT ID="293">
    <NAME>Thyna</NAME>
    <IATA>SFA</IATA>
    <ICAO>DTTX</ICAO>
    <LATITUDE>34.71795300</LATITUDE>
    <LONGITUDE>10.69097200</LONGITUDE>
  </AIRPORT>
  <AIRPORT ID="294">
    <NAME>Nefta</NAME>
    <IATA>TOE</IATA>
    <ICAO>DTTZ</ICAO>
    <LATITUDE>33.93972200</LATITUDE>
    <LONGITUDE>8.11055600</LONGITUDE>
  </AIRPORT>
  <AIRPORT ID="295">
    <NAME>Niamtougou International</NAME>
    <IATA>LRL</IATA>
    <ICAO>DXNG</ICAO>
    <LATITUDE>9.76733300</LATITUDE>
    <LONGITUDE>1.09125000</LONGITUDE>
  </AIRPORT>
  <AIRPORT ID="296">
    <NAME>Gnassingbe Eyadema Intl</NAME>
    <IATA>LFW</IATA>
    <ICAO>DXXX</ICAO>
    <LATITUDE>6.16561100</LATITUDE>
    <LONGITUDE>1.25451100</LONGITUDE>
  </AIRPORT>
  <AIRPORT ID="297">
    <NAME>Deurne</NAME>
    <IATA>ANR</IATA>
    <ICAO>EBAW</ICAO>
    <LATITUDE>51.18944400</LATITUDE>
    <LONGITUDE>4.46027800</LONGITUDE>
  </AIRPORT>
  <AIRPORT ID="298">
    <NAME>Beauvechain</NAME>
    <IATA>
    </IATA>
    <ICAO>EBBE</ICAO>
    <LATITUDE>50.75861000</LATITUDE>
    <LONGITUDE>4.76833300</LONGITUDE>
  </AIRPORT>
  <AIRPORT ID="299">
    <NAME>Kleine Brogel</NAME>
    <IATA>
    </IATA>
    <ICAO>EBBL</ICAO>
    <LATITUDE>51.16833300</LATITUDE>
    <LONGITUDE>5.47000000</LONGITUDE>
  </AIRPORT>
  <AIRPORT ID="300">
    <NAME>Brussels Natl</NAME>
    <IATA>BRU</IATA>
    <ICAO>EBBR</ICAO>
    <LATITUDE>50.90138900</LATITUDE>
    <LONGITUDE>4.48444400</LONGITUDE>
  </AIRPORT>
  <AIRPORT ID="301">
    <NAME>Bertrix</NAME>
    <IATA>
    </IATA>
    <ICAO>EBBX</ICAO>
    <LATITUDE>49.89166700</LATITUDE>
    <LONGITUDE>5.22388900</LONGITUDE>
  </AIRPORT>
  <AIRPORT ID="302">
    <NAME>Brussels South</NAME>
    <IATA>CRL</IATA>
    <ICAO>EBCI</ICAO>
    <LATITUDE>50.45919700</LATITUDE>
    <LONGITUDE>4.45381700</LONGITUDE>
  </AIRPORT>
  <AIRPORT ID="303">
    <NAME>Chievres Ab</NAME>
    <IATA>
    </IATA>
    <ICAO>EBCV</ICAO>
    <LATITUDE>50.57583300</LATITUDE>
    <LONGITUDE>3.83100000</LONGITUDE>
  </AIRPORT>
  <AIRPORT ID="304">
    <NAME>Koksijde</NAME>
    <IATA>
    </IATA>
    <ICAO>EBFN</ICAO>
    <LATITUDE>51.09027800</LATITUDE>
    <LONGITUDE>2.65277800</LONGITUDE>
  </AIRPORT>
  <AIRPORT ID="305">
    <NAME>Florennes</NAME>
    <IATA>
    </IATA>
    <ICAO>EBFS</ICAO>
    <LATITUDE>50.24333300</LATITUDE>
    <LONGITUDE>4.64583300</LONGITUDE>
  </AIRPORT>
  <AIRPORT ID="306">
    <NAME>Wevelgem</NAME>
    <IATA>QKT</IATA>
    <ICAO>EBKT</ICAO>
    <LATITUDE>50.81722200</LATITUDE>
    <LONGITUDE>3.20472200</LONGITUDE>
  </AIRPORT>
  <AIRPORT ID="307">
    <NAME>Liege</NAME>
    <IATA>LGG</IATA>
    <ICAO>EBLG</ICAO>
    <LATITUDE>50.63741700</LATITUDE>
    <LONGITUDE>5.44322200</LONGITUDE>
  </AIRPORT>
  <AIRPORT ID="308">
    <NAME>Oostende</NAME>
    <IATA>OST</IATA>
    <ICAO>EBOS</ICAO>
    <LATITUDE>51.19888900</LATITUDE>
    <LONGITUDE>2.86222200</LONGITUDE>
  </AIRPORT>
  <AIRPORT ID="309">
    <NAME>Zutendaal</NAME>
    <IATA>
    </IATA>
    <ICAO>EBSL</ICAO>
    <LATITUDE>50.94750000</LATITUDE>
    <LONGITUDE>5.59055600</LONGITUDE>
  </AIRPORT>
  <AIRPORT ID="310">
    <NAME>Sint Truiden</NAME>
    <IATA>
    </IATA>
    <ICAO>EBST</ICAO>
    <LATITUDE>50.79194400</LATITUDE>
    <LONGITUDE>5.20166700</LONGITUDE>
  </AIRPORT>
  <AIRPORT ID="311">
    <NAME>Saint Hubert Mil</NAME>
    <IATA>
    </IATA>
    <ICAO>EBSU</ICAO>
    <LATITUDE>50.03583300</LATITUDE>
    <LONGITUDE>5.40416700</LONGITUDE>
  </AIRPORT>
  <AIRPORT ID="312">
    <NAME>Ursel</NAME>
    <IATA>
    </IATA>
    <ICAO>EBUL</ICAO>
    <LATITUDE>51.14413300</LATITUDE>
    <LONGITUDE>3.47436100</LONGITUDE>
  </AIRPORT>
  <AIRPORT ID="313">
    <NAME>Weelde</NAME>
    <IATA>
    </IATA>
    <ICAO>EBWE</ICAO>
    <LATITUDE>51.39478300</LATITUDE>
    <LONGITUDE>4.96019400</LONGITUDE>
  </AIRPORT>
  <AIRPORT ID="314">
    <NAME>Zoersel</NAME>
    <IATA>
    </IATA>
    <ICAO>EBZR</ICAO>
    <LATITUDE>51.26472200</LATITUDE>
    <LONGITUDE>4.75333300</LONGITUDE>
  </AIRPORT>
  <AIRPORT ID="315">
    <NAME>Bautzen</NAME>
    <IATA>BBJ</IATA>
    <ICAO>EDAB</ICAO>
    <LATITUDE>51.19353100</LATITUDE>
    <LONGITUDE>14.51974700</LONGITUDE>
  </AIRPORT>
  <AIRPORT ID="316">
    <NAME>Altenburg Nobitz</NAME>
    <IATA>AOC</IATA>
    <ICAO>EDAC</ICAO>
    <LATITUDE>50.98181700</LATITUDE>
    <LONGITUDE>12.50636100</LONGITUDE>
  </AIRPORT>
  <AIRPORT ID="317">
    <NAME>Dessau</NAME>
    <IATA>
    </IATA>
    <ICAO>EDAD</ICAO>
    <LATITUDE>51.83182800</LATITUDE>
    <LONGITUDE>12.18403300</LONGITUDE>
  </AIRPORT>
  <AIRPORT ID="318">
    <NAME>Eisenhuttenstadt</NAME>
    <IATA>
    </IATA>
    <ICAO>EDAE</ICAO>
    <LATITUDE>52.19733300</LATITUDE>
    <LONGITUDE>14.58566700</LONGITUDE>
  </AIRPORT>
  <AIRPORT ID="319">
    <NAME>Putnam County Airport</NAME>
    <IATA>4I7</IATA>
    <ICAO>Z</ICAO>
    <LATITUDE>39.63355560</LATITUDE>
    <LONGITUDE>-86.81380560</LONGITUDE>
  </AIRPORT>
  <AIRPORT ID="320">
    <NAME>Grossenhain</NAME>
    <IATA>
    </IATA>
    <ICAO>EDAK</ICAO>
    <LATITUDE>51.30811100</LATITUDE>
    <LONGITUDE>13.55497300</LONGITUDE>
  </AIRPORT>
  <AIRPORT ID="321">
    <NAME>Merseburg</NAME>
    <IATA>
    </IATA>
    <ICAO>EDAM</ICAO>
    <LATITUDE>51.36300000</LATITUDE>
    <LONGITUDE>11.94083300</LONGITUDE>
  </AIRPORT>
  <AIRPORT ID="322">
    <NAME>Halle Oppin</NAME>
    <IATA>
    </IATA>
    <ICAO>EDAQ</ICAO>
    <LATITUDE>51.55200000</LATITUDE>
    <LONGITUDE>12.05266700</LONGITUDE>
  </AIRPORT>
  <AIRPORT ID="323">
    <NAME>Riesa Gohlis</NAME>
    <IATA>
    </IATA>
    <ICAO>EDAU</ICAO>
    <LATITUDE>51.29350000</LATITUDE>
    <LONGITUDE>13.35600000</LONGITUDE>
  </AIRPORT>
  <AIRPORT ID="324">
    <NAME>Rechlin Larz</NAME>
    <IATA>
    </IATA>
    <ICAO>EDAX</ICAO>
    <LATITUDE>53.30641700</LATITUDE>
    <LONGITUDE>12.75313900</LONGITUDE>
  </AIRPORT>
  <AIRPORT ID="325">
    <NAME>Strausberg</NAME>
    <IATA>
    </IATA>
    <ICAO>EDAY</ICAO>
    <LATITUDE>52.57997800</LATITUDE>
    <LONGITUDE>13.91568300</LONGITUDE>
  </AIRPORT>
  <AIRPORT ID="326">
    <NAME>Schonhagen</NAME>
    <IATA>
    </IATA>
    <ICAO>EDAZ</ICAO>
    <LATITUDE>52.20325800</LATITUDE>
    <LONGITUDE>13.15840800</LONGITUDE>
  </AIRPORT>
  <AIRPORT ID="327">
    <NAME>Barth</NAME>
    <IATA>BBH</IATA>
    <ICAO>EDBH</ICAO>
    <LATITUDE>54.33754000</LATITUDE>
    <LONGITUDE>12.69970500</LONGITUDE>
  </AIRPORT>
  <AIRPORT ID="328">
    <NAME>Jena Schongleina</NAME>
    <IATA>
    </IATA>
    <ICAO>EDBJ</ICAO>
    <LATITUDE>50.91516100</LATITUDE>
    <LONGITUDE>11.71451900</LONGITUDE>
  </AIRPORT>
  <AIRPORT ID="329">
    <NAME>Kyritz</NAME>
    <IATA>
    </IATA>
    <ICAO>EDBK</ICAO>
    <LATITUDE>52.91883300</LATITUDE>
    <LONGITUDE>12.42533300</LONGITUDE>
  </AIRPORT>
  <AIRPORT ID="330">
    <NAME>Magdeburg</NAME>
    <IATA>
    </IATA>
    <ICAO>EDBM</ICAO>
    <LATITUDE>52.07365800</LATITUDE>
    <LONGITUDE>11.62646700</LONGITUDE>
  </AIRPORT>
  <AIRPORT ID="331">
    <NAME>Rothenburg Gorlitz</NAME>
    <IATA>
    </IATA>
    <ICAO>EDBR</ICAO>
    <LATITUDE>51.36316700</LATITUDE>
    <LONGITUDE>14.95000000</LONGITUDE>
  </AIRPORT>
  <AIRPORT ID="332">
    <NAME>Anklam</NAME>
    <IATA>
    </IATA>
    <ICAO>EDCA</ICAO>
    <LATITUDE>53.83270000</LATITUDE>
    <LONGITUDE>13.66913100</LONGITUDE>
  </AIRPORT>
  <AIRPORT ID="333">
    <NAME>Cottbus Drewitz</NAME>
    <IATA>
    </IATA>
    <ICAO>EDCD</ICAO>
    <LATITUDE>51.88947500</LATITUDE>
    <LONGITUDE>14.53198600</LONGITUDE>
  </AIRPORT>
  <AIRPORT ID="334">
    <NAME>Kamenz</NAME>
    <IATA>
    </IATA>
    <ICAO>EDCM</ICAO>
    <LATITUDE>51.29625000</LATITUDE>
    <LONGITUDE>14.12900000</LONGITUDE>
  </AIRPORT>
  <AIRPORT ID="335">
    <NAME>Schonefeld</NAME>
    <IATA>SXF</IATA>
    <ICAO>EDDB</ICAO>
    <LATITUDE>52.38000100</LATITUDE>
    <LONGITUDE>13.52250000</LONGITUDE>
  </AIRPORT>
  <AIRPORT ID="336">
    <NAME>Dresden</NAME>
    <IATA>DRS</IATA>
    <ICAO>EDDC</ICAO>
    <LATITUDE>51.13276700</LATITUDE>
    <LONGITUDE>13.76716100</LONGITUDE>
  </AIRPORT>
  <AIRPORT ID="337">
    <NAME>Erfurt</NAME>
    <IATA>ERF</IATA>
    <ICAO>EDDE</ICAO>
    <LATITUDE>50.97981100</LATITUDE>
    <LONGITUDE>10.95810600</LONGITUDE>
  </AIRPORT>
  <AIRPORT ID="338">
    <NAME>Frankfurt Main</NAME>
    <IATA>FRA</IATA>
    <ICAO>EDDF</ICAO>
    <LATITUDE>50.02642100</LATITUDE>
    <LONGITUDE>8.54312500</LONGITUDE>
  </AIRPORT>
  <AIRPORT ID="339">
    <NAME>Munster Osnabruck</NAME>
    <IATA>FMO</IATA>
    <ICAO>EDDG</ICAO>
    <LATITUDE>52.13464200</LATITUDE>
    <LONGITUDE>7.68483100</LONGITUDE>
  </AIRPORT>
  <AIRPORT ID="340">
    <NAME>Hamburg</NAME>
    <IATA>HAM</IATA>
    <ICAO>EDDH</ICAO>
    <LATITUDE>53.63038900</LATITUDE>
    <LONGITUDE>9.98822800</LONGITUDE>
  </AIRPORT>
  <AIRPORT ID="341">
    <NAME>Tempelhof</NAME>
    <IATA>THF</IATA>
    <ICAO>EDDI</ICAO>
    <LATITUDE>52.47302500</LATITUDE>
    <LONGITUDE>13.40394400</LONGITUDE>
  </AIRPORT>
  <AIRPORT ID="342">
    <NAME>Koln Bonn</NAME>
    <IATA>CGN</IATA>
    <ICAO>EDDK</ICAO>
    <LATITUDE>50.86591700</LATITUDE>
    <LONGITUDE>7.14274400</LONGITUDE>
  </AIRPORT>
  <AIRPORT ID="343">
    <NAME>Dusseldorf</NAME>
    <IATA>DUS</IATA>
    <ICAO>EDDL</ICAO>
    <LATITUDE>51.28945300</LATITUDE>
    <LONGITUDE>6.76677500</LONGITUDE>
  </AIRPORT>
  <AIRPORT ID="344">
    <NAME>Franz Josef Strauss</NAME>
    <IATA>MUC</IATA>
    <ICAO>EDDM</ICAO>
    <LATITUDE>48.35378300</LATITUDE>
    <LONGITUDE>11.78608600</LONGITUDE>
  </AIRPORT>
  <AIRPORT ID="345">
    <NAME>Nurnberg</NAME>
    <IATA>NUE</IATA>
    <ICAO>EDDN</ICAO>
    <LATITUDE>49.49870000</LATITUDE>
    <LONGITUDE>11.06689700</LONGITUDE>
  </AIRPORT>
  <AIRPORT ID="346">
    <NAME>Leipzig Halle</NAME>
    <IATA>LEJ</IATA>
    <ICAO>EDDP</ICAO>
    <LATITUDE>51.43244700</LATITUDE>
    <LONGITUDE>12.24163300</LONGITUDE>
  </AIRPORT>
  <AIRPORT ID="347">
    <NAME>Saarbrucken</NAME>
    <IATA>SCN</IATA>
    <ICAO>EDDR</ICAO>
    <LATITUDE>49.21455300</LATITUDE>
    <LONGITUDE>7.10950800</LONGITUDE>
  </AIRPORT>
  <AIRPORT ID="348">
    <NAME>Stuttgart</NAME>
    <IATA>STR</IATA>
    <ICAO>EDDS</ICAO>
    <LATITUDE>48.68987800</LATITUDE>
    <LONGITUDE>9.22196400</LONGITUDE>
  </AIRPORT>
  <AIRPORT ID="349">
    <NAME>Tegel</NAME>
    <IATA>TXL</IATA>
    <ICAO>EDDT</ICAO>
    <LATITUDE>52.55968600</LATITUDE>
    <LONGITUDE>13.28771100</LONGITUDE>
  </AIRPORT>
  <AIRPORT ID="350">
    <NAME>Hannover</NAME>
    <IATA>HAJ</IATA>
    <ICAO>EDDV</ICAO>
    <LATITUDE>52.46105600</LATITUDE>
    <LONGITUDE>9.68507800</LONGITUDE>
  </AIRPORT>
  <AIRPORT ID="351">
    <NAME>Neuenland</NAME>
    <IATA>BRE</IATA>
    <ICAO>EDDW</ICAO>
    <LATITUDE>53.04750000</LATITUDE>
    <LONGITUDE>8.78666700</LONGITUDE>
  </AIRPORT>
  <AIRPORT ID="352">
    <NAME>Egelsbach</NAME>
    <IATA>
    </IATA>
    <ICAO>EDFE</ICAO>
    <LATITUDE>49.96083300</LATITUDE>
    <LONGITUDE>8.64150000</LONGITUDE>
  </AIRPORT>
  <AIRPORT ID="353">
    <NAME>Frankfurt Hahn</NAME>
    <IATA>HHN</IATA>
    <ICAO>EDFH</ICAO>
    <LATITUDE>49.94867200</LATITUDE>
    <LONGITUDE>7.26389200</LONGITUDE>
  </AIRPORT>
  <AIRPORT ID="354">
    <NAME>Mannheim City</NAME>
    <IATA>MHG</IATA>
    <ICAO>EDFM</ICAO>
    <LATITUDE>49.47270600</LATITUDE>
    <LONGITUDE>8.51426400</LONGITUDE>
  </AIRPORT>
  <AIRPORT ID="355">
    <NAME>Allendorf Eder</NAME>
    <IATA>
    </IATA>
    <ICAO>EDFQ</ICAO>
    <LATITUDE>51.03487800</LATITUDE>
    <LONGITUDE>8.68083900</LONGITUDE>
  </AIRPORT>
  <AIRPORT ID="356">
    <NAME>Worms</NAME>
    <IATA>
    </IATA>
    <ICAO>EDFV</ICAO>
    <LATITUDE>49.60651100</LATITUDE>
    <LONGITUDE>8.36840000</LONGITUDE>
  </AIRPORT>
  <AIRPORT ID="357">
    <NAME>Mainz Finthen</NAME>
    <IATA>
    </IATA>
    <ICAO>EDFZ</ICAO>
    <LATITUDE>49.96893100</LATITUDE>
    <LONGITUDE>8.14833600</LONGITUDE>
  </AIRPORT>
  <AIRPORT ID="358">
    <NAME>Eisenach Kindel</NAME>
    <IATA>
    </IATA>
    <ICAO>EDGE</ICAO>
    <LATITUDE>50.99279700</LATITUDE>
    <LONGITUDE>10.47271100</LONGITUDE>
  </AIRPORT>
  <AIRPORT ID="359">
    <NAME>Siegerland</NAME>
    <IATA>
    </IATA>
    <ICAO>EDGS</ICAO>
    <LATITUDE>50.70765800</LATITUDE>
    <LONGITUDE>8.08296900</LONGITUDE>
  </AIRPORT>
  <AIRPORT ID="360">
    <NAME>Hamburg Finkenwerder</NAME>
    <IATA>XFW</IATA>
    <ICAO>EDHI</ICAO>
    <LATITUDE>53.53588600</LATITUDE>
    <LONGITUDE>9.83702500</LONGITUDE>
  </AIRPORT>
  <AIRPORT ID="361">
    <NAME>Kiel Holtenau</NAME>
    <IATA>KEL</IATA>
    <ICAO>EDHK</ICAO>
    <LATITUDE>54.37950000</LATITUDE>
    <LONGITUDE>10.14516700</LONGITUDE>
  </AIRPORT>
  <AIRPORT ID="362">
    <NAME>Lubeck Blankensee</NAME>
    <IATA>LBC</IATA>
    <ICAO>EDHL</ICAO>
    <LATITUDE>53.80536700</LATITUDE>
    <LONGITUDE>10.71922200</LONGITUDE>
  </AIRPORT>
  <AIRPORT ID="363">
    <NAME>Dahlemer Binz</NAME>
    <IATA>
    </IATA>
    <ICAO>EDKV</ICAO>
    <LATITUDE>50.40588800</LATITUDE>
    <LONGITUDE>6.52808300</LONGITUDE>
  </AIRPORT>
  <AIRPORT ID="364">
    <NAME>Meinerzhagen</NAME>
    <IATA>
    </IATA>
    <ICAO>EDKZ</ICAO>
    <LATITUDE>51.09944500</LATITUDE>
    <LONGITUDE>7.60194400</LONGITUDE>
  </AIRPORT>
  <AIRPORT ID="365">
    <NAME>Arnsberg Menden</NAME>
    <IATA>ZCA</IATA>
    <ICAO>EDLA</ICAO>
    <LATITUDE>51.48333300</LATITUDE>
    <LONGITUDE>7.89933300</LONGITUDE>
  </AIRPORT>
  <AIRPORT ID="366">
    <NAME>Essen Mulheim</NAME>
    <IATA>ESS</IATA>
    <ICAO>EDLE</ICAO>
    <LATITUDE>51.40233300</LATITUDE>
    <LONGITUDE>6.93733300</LONGITUDE>
  </AIRPORT>
  <AIRPORT ID="367">
    <NAME>Bielefeld</NAME>
    <IATA>
    </IATA>
    <ICAO>EDLI</ICAO>
    <LATITUDE>51.96483300</LATITUDE>
    <LONGITUDE>8.54483300</LONGITUDE>
  </AIRPORT>
  <AIRPORT ID="368">
    <NAME>Monchengladbach</NAME>
    <IATA>MGL</IATA>
    <ICAO>EDLN</ICAO>
    <LATITUDE>51.23035600</LATITUDE>
    <LONGITUDE>6.50449400</LONGITUDE>
  </AIRPORT>
  <AIRPORT ID="369">
    <NAME>Paderborn Lippstadt</NAME>
    <IATA>PAD</IATA>
    <ICAO>EDLP</ICAO>
    <LATITUDE>51.61408900</LATITUDE>
    <LONGITUDE>8.61631700</LONGITUDE>
  </AIRPORT>
  <AIRPORT ID="370">
    <NAME>Stadtlohn Vreden</NAME>
    <IATA>
    </IATA>
    <ICAO>EDLS</ICAO>
    <LATITUDE>51.99584400</LATITUDE>
    <LONGITUDE>6.84066700</LONGITUDE>
  </AIRPORT>
  <AIRPORT ID="371">
    <NAME>Dortmund</NAME>
    <IATA>DTM</IATA>
    <ICAO>EDLW</ICAO>
    <LATITUDE>51.51831400</LATITUDE>
    <LONGITUDE>7.61224200</LONGITUDE>
  </AIRPORT>
  <AIRPORT ID="372">
    <NAME>Augsburg</NAME>
    <IATA>AGB</IATA>
    <ICAO>EDMA</ICAO>
    <LATITUDE>48.42515800</LATITUDE>
    <LONGITUDE>10.93176400</LONGITUDE>
  </AIRPORT>
  <AIRPORT ID="373">
    <NAME>Biberach An Der Riss</NAME>
    <IATA>
    </IATA>
    <ICAO>EDMB</ICAO>
    <LATITUDE>48.11100000</LATITUDE>
    <LONGITUDE>9.76283300</LONGITUDE>
  </AIRPORT>
  <AIRPORT ID="374">
    <NAME>Eggenfelden</NAME>
    <IATA>
    </IATA>
    <ICAO>EDME</ICAO>
    <LATITUDE>48.39616700</LATITUDE>
    <LONGITUDE>12.72366700</LONGITUDE>
  </AIRPORT>
  <AIRPORT ID="375">
    <NAME>Mindelheim Mattsies</NAME>
    <IATA>
    </IATA>
    <ICAO>EDMN</ICAO>
    <LATITUDE>48.10883300</LATITUDE>
    <LONGITUDE>10.52433300</LONGITUDE>
  </AIRPORT>
  <AIRPORT ID="376">
    <NAME>Oberpfaffenhofen</NAME>
    <IATA>OBF</IATA>
    <ICAO>EDMO</ICAO>
    <LATITUDE>48.08136400</LATITUDE>
    <LONGITUDE>11.28306700</LONGITUDE>
  </AIRPORT>
  <AIRPORT ID="377">
    <NAME>Straubing</NAME>
    <IATA>
    </IATA>
    <ICAO>EDMS</ICAO>
    <LATITUDE>48.90095000</LATITUDE>
    <LONGITUDE>12.51818600</LONGITUDE>
  </AIRPORT>
  <AIRPORT ID="378">
    <NAME>Vilshofen</NAME>
    <IATA>
    </IATA>
    <ICAO>EDMV</ICAO>
    <LATITUDE>48.63516700</LATITUDE>
    <LONGITUDE>13.19566700</LONGITUDE>
  </AIRPORT>
  <AIRPORT ID="379">
    <NAME>Leutkirch Unterzeil</NAME>
    <IATA>
    </IATA>
    <ICAO>EDNL</ICAO>
    <LATITUDE>47.85911700</LATITUDE>
    <LONGITUDE>10.01457200</LONGITUDE>
  </AIRPORT>
  <AIRPORT ID="380">
    <NAME>Friedrichshafen</NAME>
    <IATA>FDH</IATA>
    <ICAO>EDNY</ICAO>
    <LATITUDE>47.67131700</LATITUDE>
    <LONGITUDE>9.51148600</LONGITUDE>
  </AIRPORT>
  <AIRPORT ID="381">
    <NAME>Schwerin Parchim</NAME>
    <IATA>SZW</IATA>
    <ICAO>EDOP</ICAO>
    <LATITUDE>53.42699700</LATITUDE>
    <LONGITUDE>11.78343600</LONGITUDE>
  </AIRPORT>
  <AIRPORT ID="382">
    <NAME>Stendal Borstel</NAME>
    <IATA>ZSN</IATA>
    <ICAO>EDOV</ICAO>
    <LATITUDE>52.62777800</LATITUDE>
    <LONGITUDE>11.81833300</LONGITUDE>
  </AIRPORT>
  <AIRPORT ID="383">
    <NAME>Aalen Heidenheim Elchingen</NAME>
    <IATA>
    </IATA>
    <ICAO>EDPA</ICAO>
    <LATITUDE>48.77783300</LATITUDE>
    <LONGITUDE>10.26466700</LONGITUDE>
  </AIRPORT>
  <AIRPORT ID="384">
    <NAME>Bayreuth</NAME>
    <IATA>BYU</IATA>
    <ICAO>EDQD</ICAO>
    <LATITUDE>49.98442800</LATITUDE>
    <LONGITUDE>11.63856900</LONGITUDE>
  </AIRPORT>
  <AIRPORT ID="385">
    <NAME>Burg Feuerstein</NAME>
    <IATA>
    </IATA>
    <ICAO>EDQE</ICAO>
    <LATITUDE>49.79383300</LATITUDE>
    <LONGITUDE>11.13316700</LONGITUDE>
  </AIRPORT>
  <AIRPORT ID="386">
    <NAME>Hof Plauen</NAME>
    <IATA>HOQ</IATA>
    <ICAO>EDQM</ICAO>
    <LATITUDE>50.28883600</LATITUDE>
    <LONGITUDE>11.85491900</LONGITUDE>
  </AIRPORT>
  <AIRPORT ID="387">
    <NAME>Hassfurt Schweinfurt</NAME>
    <IATA>
    </IATA>
    <ICAO>EDQT</ICAO>
    <LATITUDE>50.01800000</LATITUDE>
    <LONGITUDE>10.52950000</LONGITUDE>
  </AIRPORT>
  <AIRPORT ID="388">
    <NAME>Koblenz Winningen</NAME>
    <IATA>ZNV</IATA>
    <ICAO>EDRK</ICAO>
    <LATITUDE>50.32550000</LATITUDE>
    <LONGITUDE>7.52866700</LONGITUDE>
  </AIRPORT>
  <AIRPORT ID="389">
    <NAME>Trier Fohren</NAME>
    <IATA>ZQF</IATA>
    <ICAO>EDRT</ICAO>
    <LATITUDE>49.86350000</LATITUDE>
    <LONGITUDE>6.78816700</LONGITUDE>
  </AIRPORT>
  <AIRPORT ID="390">
    <NAME>Speyer</NAME>
    <IATA>ZQC</IATA>
    <ICAO>EDRY</ICAO>
    <LATITUDE>49.30277600</LATITUDE>
    <LONGITUDE>8.45119500</LONGITUDE>
  </AIRPORT>
  <AIRPORT ID="391">
    <NAME>Zweibrucken</NAME>
    <IATA>
    </IATA>
    <ICAO>EDRZ</ICAO>
    <LATITUDE>49.20952500</LATITUDE>
    <LONGITUDE>7.40064700</LONGITUDE>
  </AIRPORT>
  <AIRPORT ID="392">
    <NAME>Donaueschingen Villingen</NAME>
    <IATA>ZQL</IATA>
    <ICAO>EDTD</ICAO>
    <LATITUDE>47.97333100</LATITUDE>
    <LONGITUDE>8.52222300</LONGITUDE>
  </AIRPORT>
  <AIRPORT ID="393">
    <NAME>Freiburg</NAME>
    <IATA>
    </IATA>
    <ICAO>EDTF</ICAO>
    <LATITUDE>48.02265300</LATITUDE>
    <LONGITUDE>7.83258300</LONGITUDE>
  </AIRPORT>
  <AIRPORT ID="394">
    <NAME>Mengen Hohentengen</NAME>
    <IATA>
    </IATA>
    <ICAO>EDTM</ICAO>
    <LATITUDE>48.05383300</LATITUDE>
    <LONGITUDE>9.37283300</LONGITUDE>
  </AIRPORT>
  <AIRPORT ID="395">
    <NAME>Schwabisch Hall</NAME>
    <IATA>
    </IATA>
    <ICAO>EDTY</ICAO>
    <LATITUDE>49.11831700</LATITUDE>
    <LONGITUDE>9.78395600</LONGITUDE>
  </AIRPORT>
  <AIRPORT ID="396">
    <NAME>Finsterwalde Schacksdorf</NAME>
    <IATA>
    </IATA>
    <ICAO>EDUS</ICAO>
    <LATITUDE>51.60750000</LATITUDE>
    <LONGITUDE>13.73800000</LONGITUDE>
  </AIRPORT>
  <AIRPORT ID="397">
    <NAME>Braunschweig Wolfsburg</NAME>
    <IATA>BWE</IATA>
    <ICAO>EDVE</ICAO>
    <LATITUDE>52.31916700</LATITUDE>
    <LONGITUDE>10.55611100</LONGITUDE>
  </AIRPORT>
  <AIRPORT ID="398">
    <NAME>Kassel Calden</NAME>
    <IATA>KSF</IATA>
    <ICAO>EDVK</ICAO>
    <LATITUDE>51.40839400</LATITUDE>
    <LONGITUDE>9.37763100</LONGITUDE>
  </AIRPORT>
  <AIRPORT ID="399">
    <NAME>Hildesheim</NAME>
    <IATA>
    </IATA>
    <ICAO>EDVM</ICAO>
    <LATITUDE>52.17983300</LATITUDE>
    <LONGITUDE>9.94566700</LONGITUDE>
  </AIRPORT>
  <AIRPORT ID="400">
    <NAME>Bremerhaven</NAME>
    <IATA>BRV</IATA>
    <ICAO>EDWB</ICAO>
    <LATITUDE>53.50708100</LATITUDE>
    <LONGITUDE>8.57287800</LONGITUDE>
  </AIRPORT>
  <AIRPORT ID="401">
    <NAME>Emden</NAME>
    <IATA>EME</IATA>
    <ICAO>EDWE</ICAO>
    <LATITUDE>53.39118600</LATITUDE>
    <LONGITUDE>7.22740800</LONGITUDE>
  </AIRPORT>
  <AIRPORT ID="402">
    <NAME>Leer Papenburg</NAME>
    <IATA>
    </IATA>
    <ICAO>EDWF</ICAO>
    <LATITUDE>53.27159200</LATITUDE>
    <LONGITUDE>7.44234400</LONGITUDE>
  </AIRPORT>
  <AIRPORT ID="403">
    <NAME>Wilhelmshaven Mariensiel</NAME>
    <IATA>WVN</IATA>
    <ICAO>EDWI</ICAO>
    <LATITUDE>53.50483300</LATITUDE>
    <LONGITUDE>8.05333300</LONGITUDE>
  </AIRPORT>
  <AIRPORT ID="404">
    <NAME>Borkum</NAME>
    <IATA>BMK</IATA>
    <ICAO>EDWR</ICAO>
    <LATITUDE>53.59550000</LATITUDE>
    <LONGITUDE>6.70916700</LONGITUDE>
  </AIRPORT>
  <AIRPORT ID="405">
    <NAME>Norderney</NAME>
    <IATA>NRD</IATA>
    <ICAO>EDWY</ICAO>
    <LATITUDE>53.70682200</LATITUDE>
    <LONGITUDE>7.23024700</LONGITUDE>
  </AIRPORT>
  <AIRPORT ID="406">
    <NAME>Flensburg Schaferhaus</NAME>
    <IATA>FLF</IATA>
    <ICAO>EDXF</ICAO>
    <LATITUDE>54.77177200</LATITUDE>
    <LONGITUDE>9.37821400</LONGITUDE>
  </AIRPORT>
  <AIRPORT ID="407">
    <NAME>Rendsburg Schachtholm</NAME>
    <IATA>
    </IATA>
    <ICAO>EDXR</ICAO>
    <LATITUDE>54.22092800</LATITUDE>
    <LONGITUDE>9.60080300</LONGITUDE>
  </AIRPORT>
  <AIRPORT ID="408">
    <NAME>Westerland Sylt</NAME>
    <IATA>GWT</IATA>
    <ICAO>EDXW</ICAO>
    <LATITUDE>54.91325000</LATITUDE>
    <LONGITUDE>8.34047200</LONGITUDE>
  </AIRPORT>
  <AIRPORT ID="409">
    <NAME>Amari</NAME>
    <IATA>
    </IATA>
    <ICAO>EEEI</ICAO>
    <LATITUDE>59.26028600</LATITUDE>
    <LONGITUDE>24.20846700</LONGITUDE>
  </AIRPORT>
  <AIRPORT ID="410">
    <NAME>Kardla</NAME>
    <IATA>KDL</IATA>
    <ICAO>EEKA</ICAO>
    <LATITUDE>58.99075600</LATITUDE>
    <LONGITUDE>22.83073300</LONGITUDE>
  </AIRPORT>
  <AIRPORT ID="411">
    <NAME>Kuressaare</NAME>
    <IATA>URE</IATA>
    <ICAO>EEKE</ICAO>
    <LATITUDE>58.22988300</LATITUDE>
    <LONGITUDE>22.50949400</LONGITUDE>
  </AIRPORT>
  <AIRPORT ID="412">
    <NAME>Parnu</NAME>
    <IATA>EPU</IATA>
    <ICAO>EEPU</ICAO>
    <LATITUDE>58.41904400</LATITUDE>
    <LONGITUDE>24.47281900</LONGITUDE>
  </AIRPORT>
  <AIRPORT ID="413">
    <NAME>Tallinn</NAME>
    <IATA>TLL</IATA>
    <ICAO>EETN</ICAO>
    <LATITUDE>59.41331700</LATITUDE>
    <LONGITUDE>24.83284400</LONGITUDE>
  </AIRPORT>
  <AIRPORT ID="414">
    <NAME>Tartu</NAME>
    <IATA>TAY</IATA>
    <ICAO>EETU</ICAO>
    <LATITUDE>58.30746100</LATITUDE>
    <LONGITUDE>26.69042800</LONGITUDE>
  </AIRPORT>
  <AIRPORT ID="415">
    <NAME>Enontekio</NAME>
    <IATA>ENF</IATA>
    <ICAO>EFET</ICAO>
    <LATITUDE>68.36258600</LATITUDE>
    <LONGITUDE>23.42432200</LONGITUDE>
  </AIRPORT>
  <AIRPORT ID="416">
    <NAME>Eura</NAME>
    <IATA>
    </IATA>
    <ICAO>EFEU</ICAO>
    <LATITUDE>61.11611200</LATITUDE>
    <LONGITUDE>22.20138900</LONGITUDE>
  </AIRPORT>
  <AIRPORT ID="417">
    <NAME>Halli</NAME>
    <IATA>KEV</IATA>
    <ICAO>EFHA</ICAO>
    <LATITUDE>61.85605000</LATITUDE>
    <LONGITUDE>24.78660000</LONGITUDE>
  </AIRPORT>
  <AIRPORT ID="418">
    <NAME>Helsinki Malmi</NAME>
    <IATA>HEM</IATA>
    <ICAO>EFHF</ICAO>
    <LATITUDE>60.25455800</LATITUDE>
    <LONGITUDE>25.04282800</LONGITUDE>
  </AIRPORT>
  <AIRPORT ID="419">
    <NAME>Helsinki Vantaa</NAME>
    <IATA>HEL</IATA>
    <ICAO>EFHK</ICAO>
    <LATITUDE>60.31722200</LATITUDE>
    <LONGITUDE>24.96333300</LONGITUDE>
  </AIRPORT>
  <AIRPORT ID="420">
    <NAME>Hameenkyro</NAME>
    <IATA>
    </IATA>
    <ICAO>EFHM</ICAO>
    <LATITUDE>61.68965600</LATITUDE>
    <LONGITUDE>23.07374400</LONGITUDE>
  </AIRPORT>
  <AIRPORT ID="421">
    <NAME>Hanko</NAME>
    <IATA>
    </IATA>
    <ICAO>EFHN</ICAO>
    <LATITUDE>59.84886400</LATITUDE>
    <LONGITUDE>23.08358300</LONGITUDE>
  </AIRPORT>
  <AIRPORT ID="422">
    <NAME>Hyvinkaa</NAME>
    <IATA>
    </IATA>
    <ICAO>EFHV</ICAO>
    <LATITUDE>60.65444400</LATITUDE>
    <LONGITUDE>24.88111100</LONGITUDE>
  </AIRPORT>
  <AIRPORT ID="423">
    <NAME>Kiikala</NAME>
    <IATA>
    </IATA>
    <ICAO>EFIK</ICAO>
    <LATITUDE>60.46250200</LATITUDE>
    <LONGITUDE>23.65250000</LONGITUDE>
  </AIRPORT>
  <AIRPORT ID="424">
    <NAME>Immola</NAME>
    <IATA>
    </IATA>
    <ICAO>EFIM</ICAO>
    <LATITUDE>61.24917200</LATITUDE>
    <LONGITUDE>28.90371100</LONGITUDE>
  </AIRPORT>
  <AIRPORT ID="425">
    <NAME>Kitee</NAME>
    <IATA>
    </IATA>
    <ICAO>EFIT</ICAO>
    <LATITUDE>62.16611100</LATITUDE>
    <LONGITUDE>30.07361100</LONGITUDE>
  </AIRPORT>
  <AIRPORT ID="426">
    <NAME>Ivalo</NAME>
    <IATA>IVL</IATA>
    <ICAO>EFIV</ICAO>
    <LATITUDE>68.60726900</LATITUDE>
    <LONGITUDE>27.40532800</LONGITUDE>
  </AIRPORT>
  <AIRPORT ID="427">
    <NAME>Joensuu</NAME>
    <IATA>JOE</IATA>
    <ICAO>EFJO</ICAO>
    <LATITUDE>62.66290600</LATITUDE>
    <LONGITUDE>29.60755000</LONGITUDE>
  </AIRPORT>
  <AIRPORT ID="428">
    <NAME>Jyvaskyla</NAME>
    <IATA>JYV</IATA>
    <ICAO>EFJY</ICAO>
    <LATITUDE>62.39945300</LATITUDE>
    <LONGITUDE>25.67825300</LONGITUDE>
  </AIRPORT>
  <AIRPORT ID="429">
    <NAME>Kauhava</NAME>
    <IATA>KAU</IATA>
    <ICAO>EFKA</ICAO>
    <LATITUDE>63.12707800</LATITUDE>
    <LONGITUDE>23.05144200</LONGITUDE>
  </AIRPORT>
  <AIRPORT ID="430">
    <NAME>Kemi Tornio</NAME>
    <IATA>KEM</IATA>
    <ICAO>EFKE</ICAO>
    <LATITUDE>65.78188900</LATITUDE>
    <LONGITUDE>24.59910000</LONGITUDE>
  </AIRPORT>
  <AIRPORT ID="431">
    <NAME>Kajaani</NAME>
    <IATA>KAJ</IATA>
    <ICAO>EFKI</ICAO>
    <LATITUDE>64.28547200</LATITUDE>
    <LONGITUDE>27.69241400</LONGITUDE>
  </AIRPORT>
  <AIRPORT ID="432">
    <NAME>Kauhajoki</NAME>
    <IATA>
    </IATA>
    <ICAO>EFKJ</ICAO>
    <LATITUDE>62.46250200</LATITUDE>
    <LONGITUDE>22.39305500</LONGITUDE>
  </AIRPORT>
  <AIRPORT ID="433">
    <NAME>Kruunupyy</NAME>
    <IATA>KOK</IATA>
    <ICAO>EFKK</ICAO>
    <LATITUDE>63.72117200</LATITUDE>
    <LONGITUDE>23.14313100</LONGITUDE>
  </AIRPORT>
  <AIRPORT ID="434">
    <NAME>Kemijarvi</NAME>
    <IATA>
    </IATA>
    <ICAO>EFKM</ICAO>
    <LATITUDE>66.71288300</LATITUDE>
    <LONGITUDE>27.15678600</LONGITUDE>
  </AIRPORT>
  <AIRPORT ID="435">
    <NAME>Kuusamo</NAME>
    <IATA>KAO</IATA>
    <ICAO>EFKS</ICAO>
    <LATITUDE>65.98757500</LATITUDE>
    <LONGITUDE>29.23938100</LONGITUDE>
  </AIRPORT>
  <AIRPORT ID="436">
    <NAME>Kittila</NAME>
    <IATA>KTT</IATA>
    <ICAO>EFKT</ICAO>
    <LATITUDE>67.70102200</LATITUDE>
    <LONGITUDE>24.84685000</LONGITUDE>
  </AIRPORT>
  <AIRPORT ID="437">
    <NAME>Kuopio</NAME>
    <IATA>KUO</IATA>
    <ICAO>EFKU</ICAO>
    <LATITUDE>63.00715000</LATITUDE>
    <LONGITUDE>27.79775600</LONGITUDE>
  </AIRPORT>
  <AIRPORT ID="438">
    <NAME>Lahti Vesivehmaa</NAME>
    <IATA>
    </IATA>
    <ICAO>EFLA</ICAO>
    <LATITUDE>61.14415800</LATITUDE>
    <LONGITUDE>25.69350800</LONGITUDE>
  </AIRPORT>
  <AIRPORT ID="439">
    <NAME>Lappeenranta</NAME>
    <IATA>LPP</IATA>
    <ICAO>EFLP</ICAO>
    <LATITUDE>61.04455300</LATITUDE>
    <LONGITUDE>28.14439700</LONGITUDE>
  </AIRPORT>
  <AIRPORT ID="440">
    <NAME>Mariehamn</NAME>
    <IATA>MHQ</IATA>
    <ICAO>EFMA</ICAO>
    <LATITUDE>60.12220300</LATITUDE>
    <LONGITUDE>19.89815600</LONGITUDE>
  </AIRPORT>
  <AIRPORT ID="441">
    <NAME>Menkijarvi</NAME>
    <IATA>
    </IATA>
    <ICAO>EFME</ICAO>
    <LATITUDE>62.94666700</LATITUDE>
    <LONGITUDE>23.51888900</LONGITUDE>
  </AIRPORT>
  <AIRPORT ID="442">
    <NAME>Mikkeli</NAME>
    <IATA>MIK</IATA>
    <ICAO>EFMI</ICAO>
    <LATITUDE>61.68660000</LATITUDE>
    <LONGITUDE>27.20179400</LONGITUDE>
  </AIRPORT>
  <AIRPORT ID="443">
    <NAME>Nummela</NAME>
    <IATA>
    </IATA>
    <ICAO>EFNU</ICAO>
    <LATITUDE>60.33388900</LATITUDE>
    <LONGITUDE>24.29638900</LONGITUDE>
  </AIRPORT>
  <AIRPORT ID="444">
    <NAME>Oulu</NAME>
    <IATA>OUL</IATA>
    <ICAO>EFOU</ICAO>
    <LATITUDE>64.93006100</LATITUDE>
    <LONGITUDE>25.35456400</LONGITUDE>
  </AIRPORT>
  <AIRPORT ID="445">
    <NAME>Piikajarvi</NAME>
    <IATA>
    </IATA>
    <ICAO>EFPI</ICAO>
    <LATITUDE>61.24555800</LATITUDE>
    <LONGITUDE>22.19335600</LONGITUDE>
  </AIRPORT>
  <AIRPORT ID="446">
    <NAME>Pori</NAME>
    <IATA>POR</IATA>
    <ICAO>EFPO</ICAO>
    <LATITUDE>61.46168600</LATITUDE>
    <LONGITUDE>21.79998300</LONGITUDE>
  </AIRPORT>
  <AIRPORT ID="447">
    <NAME>Pudasjarvi</NAME>
    <IATA>
    </IATA>
    <ICAO>EFPU</ICAO>
    <LATITUDE>65.40222200</LATITUDE>
    <LONGITUDE>26.94694400</LONGITUDE>
  </AIRPORT>
  <AIRPORT ID="448">
    <NAME>Pyhasalmi</NAME>
    <IATA>
    </IATA>
    <ICAO>EFPY</ICAO>
    <LATITUDE>63.73191700</LATITUDE>
    <LONGITUDE>25.92630600</LONGITUDE>
  </AIRPORT>
  <AIRPORT ID="449">
    <NAME>Raahe Pattijoki</NAME>
    <IATA>
    </IATA>
    <ICAO>EFRH</ICAO>
    <LATITUDE>64.68805600</LATITUDE>
    <LONGITUDE>24.69583300</LONGITUDE>
  </AIRPORT>
  <AIRPORT ID="450">
    <NAME>Rantasalmi</NAME>
    <IATA>
    </IATA>
    <ICAO>EFRN</ICAO>
    <LATITUDE>62.06548100</LATITUDE>
    <LONGITUDE>28.35649400</LONGITUDE>
  </AIRPORT>
  <AIRPORT ID="451">
    <NAME>Rovaniemi</NAME>
    <IATA>RVN</IATA>
    <ICAO>EFRO</ICAO>
    <LATITUDE>66.56482200</LATITUDE>
    <LONGITUDE>25.83041100</LONGITUDE>
  </AIRPORT>
  <AIRPORT ID="452">
    <NAME>Rayskala</NAME>
    <IATA>
    </IATA>
    <ICAO>EFRY</ICAO>
    <LATITUDE>60.74472200</LATITUDE>
    <LONGITUDE>24.10777800</LONGITUDE>
  </AIRPORT>
  <AIRPORT ID="453">
    <NAME>Savonlinna</NAME>
    <IATA>SVL</IATA>
    <ICAO>EFSA</ICAO>
    <LATITUDE>61.94306400</LATITUDE>
    <LONGITUDE>28.94513600</LONGITUDE>
  </AIRPORT>
  <AIRPORT ID="454">
    <NAME>Selanpaa</NAME>
    <IATA>
    </IATA>
    <ICAO>EFSE</ICAO>
    <LATITUDE>61.06238900</LATITUDE>
    <LONGITUDE>26.79886100</LONGITUDE>
  </AIRPORT>
  <AIRPORT ID="455">
    <NAME>Sodankyla</NAME>
    <IATA>SOT</IATA>
    <ICAO>EFSO</ICAO>
    <LATITUDE>67.39503300</LATITUDE>
    <LONGITUDE>26.61913300</LONGITUDE>
  </AIRPORT>
  <AIRPORT ID="456">
    <NAME>Tampere Pirkkala</NAME>
    <IATA>TMP</IATA>
    <ICAO>EFTP</ICAO>
    <LATITUDE>61.41414700</LATITUDE>
    <LONGITUDE>23.60439200</LONGITUDE>
  </AIRPORT>
  <AIRPORT ID="457">
    <NAME>Teisko</NAME>
    <IATA>
    </IATA>
    <ICAO>EFTS</ICAO>
    <LATITUDE>61.77335000</LATITUDE>
    <LONGITUDE>24.02700600</LONGITUDE>
  </AIRPORT>
  <AIRPORT ID="458">
    <NAME>Turku</NAME>
    <IATA>TKU</IATA>
    <ICAO>EFTU</ICAO>
    <LATITUDE>60.51414200</LATITUDE>
    <LONGITUDE>22.26280800</LONGITUDE>
  </AIRPORT>
  <AIRPORT ID="459">
    <NAME>Utti</NAME>
    <IATA>QVY</IATA>
    <ICAO>EFUT</ICAO>
    <LATITUDE>60.89639400</LATITUDE>
    <LONGITUDE>26.93835300</LONGITUDE>
  </AIRPORT>
  <AIRPORT ID="460">
    <NAME>Vaasa</NAME>
    <IATA>VAA</IATA>
    <ICAO>EFVA</ICAO>
    <LATITUDE>63.05065000</LATITUDE>
    <LONGITUDE>21.76217500</LONGITUDE>
  </AIRPORT>
  <AIRPORT ID="461">
    <NAME>Varkaus</NAME>
    <IATA>VRK</IATA>
    <ICAO>EFVR</ICAO>
    <LATITUDE>62.17111100</LATITUDE>
    <LONGITUDE>27.86861100</LONGITUDE>
  </AIRPORT>
  <AIRPORT ID="462">
    <NAME>Ylivieska</NAME>
    <IATA>
    </IATA>
    <ICAO>EFYL</ICAO>
    <LATITUDE>64.06054700</LATITUDE>
    <LONGITUDE>24.71595300</LONGITUDE>
  </AIRPORT>
  <AIRPORT ID="463">
    <NAME>Aldergrove</NAME>
    <IATA>BFS</IATA>
    <ICAO>EGAA</ICAO>
    <LATITUDE>54.65750000</LATITUDE>
    <LONGITUDE>-6.21583300</LONGITUDE>
  </AIRPORT>
  <AIRPORT ID="464">
    <NAME>St Angelo</NAME>
    <IATA>ENK</IATA>
    <ICAO>EGAB</ICAO>
    <LATITUDE>54.39888900</LATITUDE>
    <LONGITUDE>-7.65166700</LONGITUDE>
  </AIRPORT>
  <AIRPORT ID="465">
    <NAME>City</NAME>
    <IATA>BHD</IATA>
    <ICAO>EGAC</ICAO>
    <LATITUDE>54.61805600</LATITUDE>
    <LONGITUDE>-5.87250000</LONGITUDE>
  </AIRPORT>
  <AIRPORT ID="466">
    <NAME>Londonderry Eglinton</NAME>
    <IATA>LDY</IATA>
    <ICAO>EGAE</ICAO>
    <LATITUDE>55.04277800</LATITUDE>
    <LONGITUDE>-7.16111100</LONGITUDE>
  </AIRPORT>
  <AIRPORT ID="467">
    <NAME>Birmingham</NAME>
    <IATA>BHX</IATA>
    <ICAO>EGBB</ICAO>
    <LATITUDE>52.45385600</LATITUDE>
    <LONGITUDE>-1.74802800</LONGITUDE>
  </AIRPORT>
  <AIRPORT ID="468">
    <NAME>Coventry</NAME>
    <IATA>CVT</IATA>
    <ICAO>EGBE</ICAO>
    <LATITUDE>52.36972200</LATITUDE>
    <LONGITUDE>-1.47972200</LONGITUDE>
  </AIRPORT>
  <AIRPORT ID="469">
    <NAME>Leicester</NAME>
    <IATA>
    </IATA>
    <ICAO>EGBG</ICAO>
    <LATITUDE>52.60777800</LATITUDE>
    <LONGITUDE>-1.03194400</LONGITUDE>
  </AIRPORT>
  <AIRPORT ID="470">
    <NAME>Gloucestershire</NAME>
    <IATA>GLO</IATA>
    <ICAO>EGBJ</ICAO>
    <LATITUDE>51.89416700</LATITUDE>
    <LONGITUDE>-2.16722200</LONGITUDE>
  </AIRPORT>
  <AIRPORT ID="471">
    <NAME>Wolverhampton</NAME>
    <IATA>
    </IATA>
    <ICAO>EGBO</ICAO>
    <LATITUDE>52.51750000</LATITUDE>
    <LONGITUDE>-2.25944400</LONGITUDE>
  </AIRPORT>
  <AIRPORT ID="472">
    <NAME>Kemble</NAME>
    <IATA>
    </IATA>
    <ICAO>EGBP</ICAO>
    <LATITUDE>51.66805600</LATITUDE>
    <LONGITUDE>-2.05694400</LONGITUDE>
  </AIRPORT>
  <AIRPORT ID="473">
    <NAME>Turweston</NAME>
    <IATA>
    </IATA>
    <ICAO>EGBT</ICAO>
    <LATITUDE>52.04083300</LATITUDE>
    <LONGITUDE>-1.09555600</LONGITUDE>
  </AIRPORT>
  <AIRPORT ID="474">
    <NAME>Wellesbourne Mountford</NAME>
    <IATA>
    </IATA>
    <ICAO>EGBW</ICAO>
    <LATITUDE>52.19222200</LATITUDE>
    <LONGITUDE>-1.61444400</LONGITUDE>
  </AIRPORT>
  <AIRPORT ID="475">
    <NAME>Manchester</NAME>
    <IATA>MAN</IATA>
    <ICAO>EGCC</ICAO>
    <LATITUDE>53.35374400</LATITUDE>
    <LONGITUDE>-2.27495000</LONGITUDE>
  </AIRPORT>
  <AIRPORT ID="476">
    <NAME>Manchester Woodford</NAME>
    <IATA>
    </IATA>
    <ICAO>EGCD</ICAO>
    <LATITUDE>53.33805600</LATITUDE>
    <LONGITUDE>-2.14888900</LONGITUDE>
  </AIRPORT>
  <AIRPORT ID="477">
    <NAME>Chivenor</NAME>
    <IATA>
    </IATA>
    <ICAO>EGDC</ICAO>
    <LATITUDE>51.08716700</LATITUDE>
    <LONGITUDE>-4.15033900</LONGITUDE>
  </AIRPORT>
  <AIRPORT ID="478">
    <NAME>St Mawgan</NAME>
    <IATA>NQY</IATA>
    <ICAO>EGDG</ICAO>
    <LATITUDE>50.44055800</LATITUDE>
    <LONGITUDE>-4.99540800</LONGITUDE>
  </AIRPORT>
  <AIRPORT ID="479">
    <NAME>Lyneham</NAME>
    <IATA>LYE</IATA>
    <ICAO>EGDL</ICAO>
    <LATITUDE>51.50514400</LATITUDE>
    <LONGITUDE>-1.99342800</LONGITUDE>
  </AIRPORT>
  <AIRPORT ID="480">
    <NAME>Boscombe Down</NAME>
    <IATA>
    </IATA>
    <ICAO>EGDM</ICAO>
    <LATITUDE>51.15218900</LATITUDE>
    <LONGITUDE>-1.74741400</LONGITUDE>
  </AIRPORT>
  <AIRPORT ID="481">
    <NAME>Culdrose</NAME>
    <IATA>
    </IATA>
    <ICAO>EGDR</ICAO>
    <LATITUDE>50.08609200</LATITUDE>
    <LONGITUDE>-5.25571100</LONGITUDE>
  </AIRPORT>
  <AIRPORT ID="482">
    <NAME>St Athan</NAME>
    <IATA>
    </IATA>
    <ICAO>EGDX</ICAO>
    <LATITUDE>51.40481100</LATITUDE>
    <LONGITUDE>-3.43575000</LONGITUDE>
  </AIRPORT>
  <AIRPORT ID="483">
    <NAME>Yeovilton</NAME>
    <IATA>YEO</IATA>
    <ICAO>EGDY</ICAO>
    <LATITUDE>51.00935800</LATITUDE>
    <LONGITUDE>-2.63881900</LONGITUDE>
  </AIRPORT>
  <AIRPORT ID="484">
    <NAME>Haverfordwest</NAME>
    <IATA>
    </IATA>
    <ICAO>EGFE</ICAO>
    <LATITUDE>51.83305600</LATITUDE>
    <LONGITUDE>-4.96111100</LONGITUDE>
  </AIRPORT>
  <AIRPORT ID="485">
    <NAME>Cardiff</NAME>
    <IATA>CWL</IATA>
    <ICAO>EGFF</ICAO>
    <LATITUDE>51.39666700</LATITUDE>
    <LONGITUDE>-3.34333300</LONGITUDE>
  </AIRPORT>
  <AIRPORT ID="486">
    <NAME>Swansea</NAME>
    <IATA>SWS</IATA>
    <ICAO>EGFH</ICAO>
    <LATITUDE>51.60533300</LATITUDE>
    <LONGITUDE>-4.06783300</LONGITUDE>
  </AIRPORT>
  <AIRPORT ID="487">
    <NAME>Bristol</NAME>
    <IATA>BRS</IATA>
    <ICAO>EGGD</ICAO>
    <LATITUDE>51.38266900</LATITUDE>
    <LONGITUDE>-2.71908900</LONGITUDE>
  </AIRPORT>
  <AIRPORT ID="488">
    <NAME>Liverpool</NAME>
    <IATA>LPL</IATA>
    <ICAO>EGGP</ICAO>
    <LATITUDE>53.33361100</LATITUDE>
    <LONGITUDE>-2.84972200</LONGITUDE>
  </AIRPORT>
  <AIRPORT ID="489">
    <NAME>Luton</NAME>
    <IATA>LTN</IATA>
    <ICAO>EGGW</ICAO>
    <LATITUDE>51.87472200</LATITUDE>
    <LONGITUDE>-0.36833300</LONGITUDE>
  </AIRPORT>
  <AIRPORT ID="490">
    <NAME>Plymouth</NAME>
    <IATA>PLH</IATA>
    <ICAO>EGHD</ICAO>
    <LATITUDE>50.42277800</LATITUDE>
    <LONGITUDE>-4.10583300</LONGITUDE>
  </AIRPORT>
  <AIRPORT ID="491">
    <NAME>Bournemouth</NAME>
    <IATA>BOH</IATA>
    <ICAO>EGHH</ICAO>
    <LATITUDE>50.78000000</LATITUDE>
    <LONGITUDE>-1.84250000</LONGITUDE>
  </AIRPORT>
  <AIRPORT ID="492">
    <NAME>Southampton</NAME>
    <IATA>SOU</IATA>
    <ICAO>EGHI</ICAO>
    <LATITUDE>50.95026100</LATITUDE>
    <LONGITUDE>-1.35680300</LONGITUDE>
  </AIRPORT>
  <AIRPORT ID="493">
    <NAME>Lasham</NAME>
    <IATA>QLA</IATA>
    <ICAO>EGHL</ICAO>
    <LATITUDE>51.18716700</LATITUDE>
    <LONGITUDE>-1.03350000</LONGITUDE>
  </AIRPORT>
  <AIRPORT ID="494">
    <NAME>Alderney</NAME>
    <IATA>ACI</IATA>
    <ICAO>EGJA</ICAO>
    <LATITUDE>49.70611100</LATITUDE>
    <LONGITUDE>-2.21472200</LONGITUDE>
  </AIRPORT>
  <AIRPORT ID="495">
    <NAME>Guernsey</NAME>
    <IATA>GCI</IATA>
    <ICAO>EGJB</ICAO>
    <LATITUDE>49.43495600</LATITUDE>
    <LONGITUDE>-2.60196900</LONGITUDE>
  </AIRPORT>
  <AIRPORT ID="496">
    <NAME>Jersey</NAME>
    <IATA>JER</IATA>
    <ICAO>EGJJ</ICAO>
    <LATITUDE>49.20794700</LATITUDE>
    <LONGITUDE>-2.19550800</LONGITUDE>
  </AIRPORT>
  <AIRPORT ID="497">
    <NAME>Shoreham</NAME>
    <IATA>ESH</IATA>
    <ICAO>EGKA</ICAO>
    <LATITUDE>50.83555600</LATITUDE>
    <LONGITUDE>-0.29722200</LONGITUDE>
  </AIRPORT>
  <AIRPORT ID="498">
    <NAME>Biggin Hill</NAME>
    <IATA>BQH</IATA>
    <ICAO>EGKB</ICAO>
    <LATITUDE>51.33083300</LATITUDE>
    <LONGITUDE>0.03250000</LONGITUDE>
  </AIRPORT>
  <AIRPORT ID="499">
    <NAME>Gatwick</NAME>
    <IATA>LGW</IATA>
    <ICAO>EGKK</ICAO>
    <LATITUDE>51.14805600</LATITUDE>
    <LONGITUDE>-0.19027800</LONGITUDE>
  </AIRPORT>
  <AIRPORT ID="500">
    <NAME>City</NAME>
    <IATA>LCY</IATA>
    <ICAO>EGLC</ICAO>
    <LATITUDE>51.50527800</LATITUDE>
    <LONGITUDE>0.05527800</LONGITUDE>
  </AIRPORT>
  <AIRPORT ID="501">
    <NAME>Farnborough</NAME>
    <IATA>FAB</IATA>
    <ICAO>EGLF</ICAO>
    <LATITUDE>51.27583300</LATITUDE>
    <LONGITUDE>-0.77633300</LONGITUDE>
  </AIRPORT>
  <AIRPORT ID="502">
    <NAME>Chalgrove</NAME>
    <IATA>
    </IATA>
    <ICAO>EGLJ</ICAO>
    <LATITUDE>51.67611100</LATITUDE>
    <LONGITUDE>-1.08083300</LONGITUDE>
  </AIRPORT>
  <AIRPORT ID="503">
    <NAME>Blackbushe</NAME>
    <IATA>BBS</IATA>
    <ICAO>EGLK</ICAO>
    <LATITUDE>51.32388900</LATITUDE>
    <LONGITUDE>-0.84750000</LONGITUDE>
  </AIRPORT>
  <AIRPORT ID="504">
    <NAME>Heathrow</NAME>
    <IATA>LHR</IATA>
    <ICAO>EGLL</ICAO>
    <LATITUDE>51.47750000</LATITUDE>
    <LONGITUDE>-0.46138900</LONGITUDE>
  </AIRPORT>
  <AIRPORT ID="505">
    <NAME>Southend</NAME>
    <IATA>SEN</IATA>
    <ICAO>EGMC</ICAO>
    <LATITUDE>51.57138900</LATITUDE>
    <LONGITUDE>0.69555600</LONGITUDE>
  </AIRPORT>
  <AIRPORT ID="506">
    <NAME>Lydd</NAME>
    <IATA>LYX</IATA>
    <ICAO>EGMD</ICAO>
    <LATITUDE>50.95611100</LATITUDE>
    <LONGITUDE>0.93916700</LONGITUDE>
  </AIRPORT>
  <AIRPORT ID="507">
    <NAME>Manston</NAME>
    <IATA>MSE</IATA>
    <ICAO>EGMH</ICAO>
    <LATITUDE>51.34222200</LATITUDE>
    <LONGITUDE>1.34611100</LONGITUDE>
  </AIRPORT>
  <AIRPORT ID="508">
    <NAME>Brough</NAME>
    <IATA>
    </IATA>
    <ICAO>EGNB</ICAO>
    <LATITUDE>53.71966700</LATITUDE>
    <LONGITUDE>-0.56633300</LONGITUDE>
  </AIRPORT>
  <AIRPORT ID="509">
    <NAME>Carlisle</NAME>
    <IATA>CAX</IATA>
    <ICAO>EGNC</ICAO>
    <LATITUDE>54.93750000</LATITUDE>
    <LONGITUDE>-2.80916700</LONGITUDE>
  </AIRPORT>
  <AIRPORT ID="510">
    <NAME>Gamston</NAME>
    <IATA>
    </IATA>
    <ICAO>EGNE</ICAO>
    <LATITUDE>53.28055600</LATITUDE>
    <LONGITUDE>-0.95138900</LONGITUDE>
  </AIRPORT>
  <AIRPORT ID="511">
    <NAME>Blackpool</NAME>
    <IATA>BLK</IATA>
    <ICAO>EGNH</ICAO>
    <LATITUDE>53.77166700</LATITUDE>
    <LONGITUDE>-3.02861100</LONGITUDE>
  </AIRPORT>
  <AIRPORT ID="512">
    <NAME>Humberside</NAME>
    <IATA>HUY</IATA>
    <ICAO>EGNJ</ICAO>
    <LATITUDE>53.57444400</LATITUDE>
    <LONGITUDE>-0.35083300</LONGITUDE>
  </AIRPORT>
  <AIRPORT ID="513">
    <NAME>Walney Island</NAME>
    <IATA>BWF</IATA>
    <ICAO>EGNL</ICAO>
    <LATITUDE>54.13116700</LATITUDE>
    <LONGITUDE>-3.26366700</LONGITUDE>
  </AIRPORT>
  <AIRPORT ID="514">
    <NAME>Leeds Bradford</NAME>
    <IATA>LBA</IATA>
    <ICAO>EGNM</ICAO>
    <LATITUDE>53.86589700</LATITUDE>
    <LONGITUDE>-1.66056900</LONGITUDE>
  </AIRPORT>
  <AIRPORT ID="515">
    <NAME>Warton</NAME>
    <IATA>
    </IATA>
    <ICAO>EGNO</ICAO>
    <LATITUDE>53.74509700</LATITUDE>
    <LONGITUDE>-2.88306100</LONGITUDE>
  </AIRPORT>
  <AIRPORT ID="516">
    <NAME>Hawarden</NAME>
    <IATA>CEG</IATA>
    <ICAO>EGNR</ICAO>
    <LATITUDE>53.17805600</LATITUDE>
    <LONGITUDE>-2.97777800</LONGITUDE>
  </AIRPORT>
  <AIRPORT ID="517">
    <NAME>Isle Of Man</NAME>
    <IATA>IOM</IATA>
    <ICAO>EGNS</ICAO>
    <LATITUDE>54.08333300</LATITUDE>
    <LONGITUDE>-4.62388900</LONGITUDE>
  </AIRPORT>
  <AIRPORT ID="518">
    <NAME>Newcastle</NAME>
    <IATA>NCL</IATA>
    <ICAO>EGNT</ICAO>
    <LATITUDE>55.03750000</LATITUDE>
    <LONGITUDE>-1.69166700</LONGITUDE>
  </AIRPORT>
  <AIRPORT ID="519">
    <NAME>Durham Tees Valley Airport</NAME>
    <IATA>MME</IATA>
    <ICAO>EGNV</ICAO>
    <LATITUDE>54.50918900</LATITUDE>
    <LONGITUDE>-1.42940600</LONGITUDE>
  </AIRPORT>
  <AIRPORT ID="520">
    <NAME>Nottingham East Midlands</NAME>
    <IATA>EMA</IATA>
    <ICAO>EGNX</ICAO>
    <LATITUDE>52.83111100</LATITUDE>
    <LONGITUDE>-1.32805600</LONGITUDE>
  </AIRPORT>
  <AIRPORT ID="521">
    <NAME>Llanbedr</NAME>
    <IATA>
    </IATA>
    <ICAO>EGOD</ICAO>
    <LATITUDE>52.81174400</LATITUDE>
    <LONGITUDE>-4.12357500</LONGITUDE>
  </AIRPORT>
  <AIRPORT ID="522">
    <NAME>Ternhill</NAME>
    <IATA>
    </IATA>
    <ICAO>EGOE</ICAO>
    <LATITUDE>52.87116400</LATITUDE>
    <LONGITUDE>-2.53356100</LONGITUDE>
  </AIRPORT>
  <AIRPORT ID="523">
    <NAME>Shawbury</NAME>
    <IATA>
    </IATA>
    <ICAO>EGOS</ICAO>
    <LATITUDE>52.79816900</LATITUDE>
    <LONGITUDE>-2.66804200</LONGITUDE>
  </AIRPORT>
  <AIRPORT ID="524">
    <NAME>Woodvale</NAME>
    <IATA>
    </IATA>
    <ICAO>EGOW</ICAO>
    <LATITUDE>53.58157500</LATITUDE>
    <LONGITUDE>-3.05552200</LONGITUDE>
  </AIRPORT>
  <AIRPORT ID="525">
    <NAME>Kirkwall</NAME>
    <IATA>KOI</IATA>
    <ICAO>EGPA</ICAO>
    <LATITUDE>58.95777800</LATITUDE>
    <LONGITUDE>-2.90500000</LONGITUDE>
  </AIRPORT>
  <AIRPORT ID="526">
    <NAME>Sumburgh</NAME>
    <IATA>LSI</IATA>
    <ICAO>EGPB</ICAO>
    <LATITUDE>59.87888900</LATITUDE>
    <LONGITUDE>-1.29555600</LONGITUDE>
  </AIRPORT>
  <AIRPORT ID="527">
    <NAME>Wick</NAME>
    <IATA>WIC</IATA>
    <ICAO>EGPC</ICAO>
    <LATITUDE>58.45888900</LATITUDE>
    <LONGITUDE>-3.09305600</LONGITUDE>
  </AIRPORT>
  <AIRPORT ID="528">
    <NAME>Dyce</NAME>
    <IATA>ABZ</IATA>
    <ICAO>EGPD</ICAO>
    <LATITUDE>57.20194400</LATITUDE>
